[
  {
    "address": "Innovative Learning Studio, Renne Library, Bozeman, MT 59717",
    "country": "US",
    "end": "2018-10-17",
    "eventbrite_id": "",
    "humandate": "Sep 26 - Oct 17, 2018",
    "latitude": 45.666695,
    "longitude": -111.048817,
    "slug": "2018-09-26-montana_state",
    "start": "2018-09-26",
    "tags": [
      {
        "name": "SWC"
      }
    ],
    "url": "https://msu-carpentries.github.io/2018-09-26-montana_state/",
    "venue": "Montana State University"
  },
  {
    "address": "777 Old Sawmill River Rd, Tarrytown, NY",
    "country": "US",
    "end": "2018-10-05",
    "eventbrite_id": "",
    "humandate": "Oct 04 - 05, 2018",
    "latitude": 41.07882,
    "longitude": -73.82248,
    "slug": "2018-10-04-Regeneron",
    "start": "2018-10-04",
    "tags": [
      {
        "name": "SWC"
      }
    ],
    "url": "https://mckays630.github.io/2018-10-04-Regeneron/",
    "venue": "Sotware Carpentry at Regeneron"
  },
  {
    "address": "Mission Hall, 550 16th Street, San Francisco, Rm 1406",
    "country": "US",
    "end": "2018-10-06",
    "eventbrite_id": "49109706454",
    "humandate": "Oct 05 - 06, 2018",
    "latitude": 37.767411,
    "longitude": -122.390344,
    "slug": "2018-10-05-UCSF-Python",
    "start": "2018-10-05",
    "tags": [
      {
        "name": "SWC"
      }
    ],
    "url": "https://gboushey.github.io/2018-10-05-UCSF-Python/",
    "venue": "University of California, San Francisco"
  },
  {
    "address": "Mission Hall, 550 16th Street, San Francisco, Rm 1407",
    "country": "US",
    "end": "2018-10-06",
    "eventbrite_id": "49109706454",
    "humandate": "Oct 05 - 06, 2018",
    "latitude": 37.76755,
    "longitude": -122.39038,
    "slug": "2018-10-05-UCSF-R",
    "start": "2018-10-05",
    "tags": [
      {
        "name": "SWC"
      }
    ],
    "url": "https://kjlquist.github.io/2018-10-05-UCSF-R/",
    "venue": "UCSF"
  },
  {
    "address": "FT 216, Faculty of Technology, CEPT University, Kasturbhai Lalbhai Campus, University Road, Navrangpura, Ahmedabad-380009 Gujarat, India",
    "country": "IN",
    "end": "2018-10-07",
    "eventbrite_id": "",
    "humandate": "Oct 06 - 07, 2018",
    "latitude": 23.037678,
    "longitude": 72.549742,
    "slug": "2018-10-06-CEPT",
    "start": "2018-10-06",
    "tags": [
      {
        "name": "DC"
      }
    ],
    "url": "https://shailygandhi.github.io/2018-10-06-CEPT/",
    "venue": "Faculty of Technology, CEPT University"
  },
  {
    "address": "Boettcher Room, Arthur Lakes Library, 1400 Illinois St., Golden, CO 80401",
    "country": "US",
    "end": "2018-10-07",
    "eventbrite_id": "50243528747",
    "humandate": "Oct 06 - 07, 2018",
    "latitude": 39.751463,
    "longitude": -105.223285,
    "slug": "2018-10-06-coloradomines",
    "start": "2018-10-06",
    "tags": [
      {
        "name": "SWC"
      }
    ],
    "url": "https://minescarpentries.github.io/2018-10-06-coloradomines/",
    "venue": "Colorado School of Mines - Software Carpentry Workshop"
  },
  {
    "address": "G40_4.112 Griffith Health Centre, Seminar Room",
    "country": "AU",
    "end": "2018-10-10",
    "eventbrite_id": "",
    "humandate": "Oct 08 - 10, 2018",
    "latitude": -27.960345,
    "longitude": 153.378868,
    "slug": "2018-10-08-GriffithUni-Python",
    "start": "2018-10-08",
    "tags": [
      {
        "name": "SWC"
      }
    ],
    "url": "https://bio-swc-bne.github.io/2018-10-08-GriffithUni-Python/",
    "venue": "Griffith University"
  },
  {
    "address": "Mizan-Teferi, Ethiopia",
    "country": "ET",
    "end": "2018-10-12",
    "eventbrite_id": "",
    "humandate": "Oct 08 - 12, 2018",
    "latitude": 6.993647,
    "longitude": 35.582199,
    "slug": "2018-10-08-MTU",
    "start": "2018-10-08",
    "tags": [
      {
        "name": "DC"
      }
    ],
    "url": "https://jaredabera.github.io/October-2018-08-12-MTU/",
    "venue": "Mizan-Tepi University"
  },
  {
    "address": "Institute for Advanced Computational Science, Stony Brook, NY",
    "country": "US",
    "end": "2018-10-09",
    "eventbrite_id": "",
    "humandate": "Oct 08 - 09, 2018",
    "latitude": 40.911813,
    "longitude": -73.120865,
    "slug": "2018-10-08-Stonybrook-IACS-Python",
    "start": "2018-10-08",
    "tags": [
      {
        "name": "SWC"
      }
    ],
    "url": "https://dwinston.github.io/2018-10-08-Stonybrook-IACS-Python/",
    "venue": "Stony Brook University"
  },
  {
    "address": "Matheson Library Teaching Room 2, Clayton Campus",
    "country": "AU",
    "end": "2018-10-08",
    "eventbrite_id": "",
    "humandate": "Oct 08 - 08, 2018",
    "latitude": -37.91048,
    "longitude": 145.137217,
    "slug": "2018-10-08-monash-lc",
    "start": "2018-10-08",
    "tags": [
      {
        "name": "LC"
      }
    ],
    "url": "https://weaverbel.github.io/2018-10-08-monash-lc/",
    "venue": "Monash University Library"
  },
  {
    "address": "Rawls Hall, Room 1057, 100 S. Grant Street, West Lafayette, IN, 47907",
    "country": "US",
    "end": "2018-10-09",
    "eventbrite_id": "49847570425",
    "humandate": "Oct 08 - 09, 2018",
    "latitude": 40.423679,
    "longitude": -86.909897,
    "slug": "2018-10-08-purdue",
    "start": "2018-10-08",
    "tags": [
      {
        "name": "SWC"
      }
    ],
    "url": "https://purdueswc.github.io/2018-10-08-purdue/",
    "venue": "Purdue University"
  },
  {
    "address": "3909 Halls Ferry Rd., Vicskburg, MS 39180",
    "country": "US",
    "end": "2018-10-09",
    "eventbrite_id": "50927895707",
    "humandate": "Oct 08 - 09, 2018",
    "latitude": 32.2997118,
    "longitude": -90.8665134,
    "slug": "2018-10-09-chl",
    "start": "2018-10-08",
    "tags": [
      {
        "name": "SWC"
      }
    ],
    "url": "https://erdc.github.io/2018-10-09-chl/",
    "venue": "Coastal and Hydraulics Laboratory"
  },
  {
    "address": "N270 HPC2N, SE-901 87, Umeå, Sweden",
    "country": "SE",
    "end": "2018-10-10",
    "eventbrite_id": "",
    "humandate": "Oct 09 - 10, 2018",
    "latitude": 63.820495,
    "longitude": 20.307391,
    "slug": "2018-10-09-umea",
    "start": "2018-10-09",
    "tags": [
      {
        "name": "SWC"
      }
    ],
    "url": "https://ab604.github.io/2018-10-09-umea/",
    "venue": "HPC2N Umeå University"
  },
  {
    "address": "IC Classroom, Green Library, 557 Escondido Mall, Stanford, CA 94305-6063",
    "country": "US",
    "end": "2018-10-11",
    "eventbrite_id": "50283060989",
    "humandate": "Oct 10 - 11, 2018",
    "latitude": 37.427065,
    "longitude": -122.16714,
    "slug": "2018-10-10-sul",
    "start": "2018-10-10",
    "tags": [
      {
        "name": "SWC"
      }
    ],
    "url": "https://kimdurante.github.io/2018-10-10-sul/",
    "venue": "Stanford University"
  },
  {
    "address": "Room TBD - 1601 S. Martin L. King Jr. Blvd, Tallahassee, FL 32307",
    "country": "US",
    "end": "2018-10-12",
    "eventbrite_id": "",
    "humandate": "Oct 11 - 12, 2018",
    "latitude": 30.421468,
    "longitude": -84.28754,
    "slug": "2018-10-11-FAMU",
    "start": "2018-10-11",
    "tags": [
      {
        "name": "SWC"
      }
    ],
    "url": "https://marwahaha.github.io/2018-10-11-FAMU/",
    "venue": "Florida A&M University"
  },
  {
    "address": "Meyerhofstrasse 1, 69117 Heidelberg",
    "country": "DE",
    "end": "2018-10-18",
    "eventbrite_id": "",
    "humandate": "Oct 16 - 18, 2018",
    "latitude": 49.38406,
    "longitude": 8.710757,
    "slug": "2018-10-16-heidelberg",
    "start": "2018-10-16",
    "tags": [
      {
        "name": "SWC"
      }
    ],
    "url": "https://tobyhodges.github.io/2018-10-16-heidelberg/",
    "venue": "European Molecular Biology Laboratory"
  },
  {
    "address": "Online",
    "country": "ZA",
    "end": "2018-11-20",
    "eventbrite_id": "",
    "humandate": "Oct 16 - Nov 20, 2018",
    "latitude": -34.3316997,
    "longitude": 18.9999885,
    "slug": "2018-10-16-online-r",
    "start": "2018-10-16",
    "tags": [
      {
        "name": "DC"
      }
    ],
    "url": "https://tenet-rccpii.github.io/2018-10-16-online-r/",
    "venue": "DC Ecology: Instructor Mentoring Workshop"
  },
  {
    "address": "Oxford e-Research Centre (7 Keble Road ,Oxford, OX1 3QG)",
    "country": "GB",
    "end": "2018-10-18",
    "eventbrite_id": "38432510674",
    "humandate": "Oct 17 - 18, 2018",
    "latitude": 51.760053,
    "longitude": -1.258617,
    "slug": "2018-10-17-oxford-swc",
    "start": "2018-10-17",
    "tags": [
      {
        "name": "SWC"
      }
    ],
    "url": "https://kpoterlowicz.github.io/2018-10-17-oxford-swc/",
    "venue": "Software Carpentry @ Oxford University"
  },
  {
    "address": "UNC Library, Research Hub, Davis Library, 208 Raleigh St, Chapel Hill, NC",
    "country": "US",
    "end": "2018-10-19",
    "eventbrite_id": "",
    "humandate": "Oct 18 - 19, 2018",
    "latitude": 35.911048,
    "longitude": -79.0502437,
    "slug": "2018-10-18-UNC",
    "start": "2018-10-18",
    "tags": [
      {
        "name": "LC"
      }
    ],
    "url": "https://libcce.github.io/2018-10-18-UNC/",
    "venue": "UNC Library-SILS"
  },
  {
    "address": "FIXME",
    "country": "US",
    "end": "2018-10-23",
    "eventbrite_id": "",
    "humandate": "Oct 22 - 23, 2018",
    "latitude": 40.92569,
    "longitude": -73.141129,
    "slug": "2018-10-22-Stonybrook-IACS-R",
    "start": "2018-10-22",
    "tags": [
      {
        "name": "SWC"
      }
    ],
    "url": "https://jjborrelli.github.io/2018-10-22-Stonybrook-IACS-R/",
    "venue": "Stonybrook"
  },
  {
    "address": "Woods Hole, MA 02543, USA",
    "country": "US",
    "end": "2018-10-23",
    "eventbrite_id": "",
    "humandate": "Oct 22 - 23, 2018",
    "latitude": 41.524235,
    "longitude": -70.671161,
    "slug": "2018-10-22-whoi",
    "start": "2018-10-22",
    "tags": [
      {
        "name": "SWC"
      }
    ],
    "url": "https://jules32.github.io/2018-10-22-whoi/",
    "venue": "Woods Hole Oceanographic Institution"
  },
  {
    "address": "Rockefeller Library, 10 Prospect Street, Providence, RI 02912",
    "country": "US",
    "end": "2018-10-23",
    "eventbrite_id": "48562683293",
    "humandate": "Oct 22 - 23, 2018",
    "latitude": 41.825748,
    "longitude": -71.405109,
    "slug": "2018-10-22-yale",
    "start": "2018-10-22",
    "tags": [
      {
        "name": "LC"
      }
    ],
    "url": "https://nesclic.github.io/2018-10-22-NEASIST-Brown/",
    "venue": "Brown University Library"
  },
  {
    "address": "Room: Vergaderzaal B0.1, Campus Coupure, Coupure Links 653, 9000 Gent, Belgium",
    "country": "BE",
    "end": "2018-10-25",
    "eventbrite_id": "",
    "humandate": "Oct 24 - 25, 2018",
    "latitude": 51.052779,
    "longitude": 3.708959,
    "slug": "2018-10-24-ugent",
    "start": "2018-10-24",
    "tags": [
      {
        "name": "SWC"
      }
    ],
    "url": "https://orchid00.github.io/2018-10-24-ugent/",
    "venue": "University of Ghent"
  },
  {
    "address": "Old Dominion University, Perry Library Learning Commons, Conference Room 1310-1311",
    "country": "US",
    "end": "2018-10-26",
    "eventbrite_id": "",
    "humandate": "Oct 25 - 26, 2018",
    "latitude": 36.884672,
    "longitude": -76.300612,
    "slug": "2018-10-25-odu",
    "start": "2018-10-25",
    "tags": [
      {
        "name": "SWC"
      }
    ],
    "url": "https://rbavery.github.io/2018-10-25-odu/",
    "venue": "Old Dominion University"
  },
  {
    "address": "Room 202, PACCAR building (2001 Grimes Way), Pullman, WA",
    "country": "US",
    "end": "2018-10-26",
    "eventbrite_id": "",
    "humandate": "Oct 25 - 26, 2018",
    "latitude": 46.7295857,
    "longitude": -117.1545807,
    "slug": "2018-10-25-wsu",
    "start": "2018-10-25",
    "tags": [
      {
        "name": "DC"
      }
    ],
    "url": "https://mbrousil.github.io/2018-10-25-wsu/",
    "venue": "Washington State University"
  },
  {
    "address": "Frontier Room, Discovery Hall, Building 3400, Richland WA",
    "country": "US",
    "end": "2018-10-30",
    "eventbrite_id": "",
    "humandate": "Oct 29 - 30, 2018",
    "latitude": 46.3513347,
    "longitude": -119.2783712,
    "slug": "2018-10-29-PNNL-SWC",
    "start": "2018-10-29",
    "tags": [
      {
        "name": "SWC"
      }
    ],
    "url": "https://pnnl-compbio.github.io/2018-10-29-PNNL-SWC/",
    "venue": "Pacific Northwest National Laboratory"
  },
  {
    "address": "Tisch Library, Room 302",
    "country": "US",
    "end": "2018-11-10",
    "eventbrite_id": "50143390230",
    "humandate": "Nov 09 - 10, 2018",
    "latitude": 42.406172,
    "longitude": -71.11884,
    "slug": "2018-11-09-tufts",
    "start": "2018-11-09",
    "tags": [
      {
        "name": "SWC"
      }
    ],
    "url": "https://nesclic.github.io/2018-11-09-tufts/",
    "venue": "Tufts University"
  },
  {
    "address": "Room 1H, Via Mesiano 77, 38123 Trento",
    "country": "IT",
    "end": "2018-11-15",
    "eventbrite_id": "",
    "humandate": "Nov 14 - 15, 2018",
    "latitude": 46.06703,
    "longitude": 11.13908,
    "slug": "2018-11-14-trento",
    "start": "2018-11-14",
    "tags": [
      {
        "name": "SWC"
      }
    ],
    "url": "https://mkcor.github.io/2018-11-14-trento/",
    "venue": "University of Trento"
  },
  {
    "address": "Hodler, Rolex Learning Center, Campus de l'EPFL, 1015 Lausanne",
    "country": "CH",
    "end": "2018-11-29",
    "eventbrite_id": "",
    "humandate": "Nov 20 - 29, 2018",
    "latitude": 46.518304,
    "longitude": 6.568269,
    "slug": "2018-11-20-epfl",
    "start": "2018-11-20",
    "tags": [
      {
        "name": "SWC"
      }
    ],
    "url": "https://epfllibrary.github.io/2018-11-20-epfl/",
    "venue": "Rolex Learning Center - Hodler"
  },
  {
    "address": "Nicolas Cabrera 13, Madrid, Spain",
    "country": "ES",
    "end": "2018-11-29",
    "eventbrite_id": "48796912880",
    "humandate": "Nov 28 - 29, 2018",
    "latitude": 40.549532,
    "longitude": -3.687608,
    "slug": "2018-11-28-cftmat",
    "start": "2018-11-28",
    "tags": [
      {
        "name": "SWC"
      }
    ],
    "url": "https://adgdt.github.io/2018-11-28-cftmat/",
    "venue": "Centro de Física Teórica y Matemáticas"
  },
  {
    "address": "Langson Library RM 570",
    "country": "US",
    "end": "2018-11-29",
    "eventbrite_id": "50242892845",
    "humandate": "Nov 28 - 29, 2018",
    "latitude": 33.647111,
    "longitude": -117.8411,
    "slug": "2018-11-28-ucirvine",
    "start": "2018-11-28",
    "tags": [
      {
        "name": "SWC"
      }
    ],
    "url": "https://uci-libraries.github.io/2018-11-28-UCI/",
    "venue": "UC Irvine Libraries"
  },
  {
    "address": "George Mason University Libraries, 1014 A & B Fenwick Library, 4400 University Dr, Fairfax, VA 22030",
    "country": "US",
    "end": "2018-12-14",
    "eventbrite_id": "",
    "humandate": "Dec 13 - 14, 2018",
    "latitude": 38.832139,
    "longitude": -77.3093677,
    "slug": "2018-12-13-GMU",
    "start": "2018-12-13",
    "tags": [
      {
        "name": "LC"
      }
    ],
    "url": "https://libcce.github.io/2018-12-13-GMU/",
    "venue": "George Mason University Libraries"
  },
  {
    "address": "Norwich Research Park, Norwich, NR4 7UZ",
    "country": "GB",
    "end": "2019-01-23",
    "eventbrite_id": "",
    "humandate": "Jan 22 - 23, 2019",
    "latitude": 52.621741,
    "longitude": 1.218987,
    "slug": "2019-01-23-SWC",
    "start": "2019-01-22",
    "tags": [
      {
        "name": "SWC"
      }
    ],
    "url": "https://tgac.github.io/2019-01-23-SWC/",
    "venue": "Earlham Institute"
  }
]
