[
  {
    "address": "Hunt Library, IDeaTE Studio A, 1st floor, 4909 Frew Street, Pittsburgh, PA 15217",
    "country": "US",
    "end": "2019-01-10",
    "eventbrite_id": "53446211056",
    "humandate": "Jan 09 - 10, 2019",
    "latitude": 40.4410639,
    "longitude": -79.9439424,
    "slug": "2019-01-09-carnegie",
    "start": "2019-01-09",
    "tags": [
      {
        "name": "SWC"
      }
    ],
    "url": "https://lo5an.github.io/2019-01-09-carnegie/",
    "venue": "Carnegie Mellon University"
  },
  {
    "address": "IDRE Portal",
    "country": "US",
    "end": "2019-01-10",
    "eventbrite_id": "52891375528",
    "humandate": "Jan 09 - 10, 2019",
    "latitude": 34.069599,
    "longitude": -118.443266,
    "slug": "2019-01-09-ucla",
    "start": "2019-01-09",
    "tags": [
      {
        "name": "SWC"
      }
    ],
    "url": "https://ucla-data-archive.github.io/2019-01-09-ucla/",
    "venue": "UCLA"
  },
  {
    "address": "2100 Hillside Rd, Storrs, CT 06269",
    "country": "US",
    "end": "2019-01-11",
    "eventbrite_id": "53867150096",
    "humandate": "Jan 10 - 11, 2019",
    "latitude": 41.805992,
    "longitude": -72.253772,
    "slug": "2019-01-10-UCONN",
    "start": "2019-01-10",
    "tags": [
      {
        "name": "SWC"
      }
    ],
    "url": "https://mickley.github.io/2019-01-10-UCONN/",
    "venue": "University of Connecticut"
  },
  {
    "address": "TBD,",
    "country": "US",
    "end": "2019-01-11",
    "eventbrite_id": "53747482166",
    "humandate": "Jan 10 - 11, 2019",
    "latitude": 40.1149832,
    "longitude": -88.2271851,
    "slug": "2019-01-10-dch-illinois",
    "start": "2019-01-10",
    "tags": [
      {
        "name": "DC"
      }
    ],
    "url": "https://swc-uiuc.github.io/2019-01-10-dch-illinois/",
    "venue": "University of Illinois"
  },
  {
    "address": "4 Soranou Ephessiou St., 115 27 Athens, Greece",
    "country": "GR",
    "end": "2019-01-11",
    "eventbrite_id": "52153548668",
    "humandate": "Jan 10 - 11, 2019",
    "latitude": 37.991431,
    "longitude": 23.780932,
    "slug": "2019-01-10-elixir-athens",
    "start": "2019-01-10",
    "tags": [
      {
        "name": "SWC"
      }
    ],
    "url": "https://fpsom.github.io/2019-01-10-elixir-athens/",
    "venue": "BRFAA - Biomedical Research Foundation Academy of Athens"
  },
  {
    "address": "Edmon Low Library, Room 206, Stillwater, OK 74078",
    "country": "US",
    "end": "2019-10-11",
    "eventbrite_id": "54004288280",
    "humandate": "Jan 10 - Oct 11, 2019",
    "latitude": 36.12297,
    "longitude": -97.069754,
    "slug": "2019-01-10-okstate",
    "start": "2019-01-10",
    "tags": [
      {
        "name": "SWC"
      }
    ],
    "url": "https://osu-carpentry.github.io/2019-01-10-okstate/",
    "venue": "Oklahoma State University"
  },
  {
    "address": "100 Boyd St, Room N106, Sarkeys Energy Center, Norman, Ok",
    "country": "US",
    "end": "2019-01-11",
    "eventbrite_id": "53752050831",
    "humandate": "Jan 10 - 11, 2019",
    "latitude": 35.21,
    "longitude": -97.44,
    "slug": "2019-01-10-ou-dcgeo",
    "start": "2019-01-10",
    "tags": [
      {
        "name": "DC"
      }
    ],
    "url": "https://oulib-swc.github.io/2019-01-10-ou-dcgeo/",
    "venue": "University of Oklahoma"
  },
  {
    "address": "Internet",
    "country": "W3",
    "end": "2019-01-11",
    "eventbrite_id": "",
    "humandate": "Jan 10 - 11, 2019",
    "latitude": -48.876667,
    "longitude": -123.393333,
    "slug": "2019-01-10-ttt-online_CST",
    "start": "2019-01-10",
    "tags": [
      {
        "name": "TTT"
      },
      {
        "name": "online"
      }
    ],
    "url": "https://christinalk.github.io/2019-01-10-ttt-online_CST/",
    "venue": "Internet"
  },
  {
    "address": "A-141, Department of Computer Science",
    "country": "PR",
    "end": "2019-01-12",
    "eventbrite_id": "",
    "humandate": "Jan 11 - 12, 2019",
    "latitude": 18.4044218,
    "longitude": -66.0463582,
    "slug": "2019-01-11-puerto_rico-Python",
    "start": "2019-01-11",
    "tags": [
      {
        "name": "SWC"
      }
    ],
    "url": "https://idi-bd2k.github.io/2019-01-11-puerto_rico-Python/",
    "venue": "University of Puerto Rico Río Piedras"
  },
  {
    "address": "Room A-143, Department of Computer Science, San Juan",
    "country": "PR",
    "end": "2019-01-12",
    "eventbrite_id": "",
    "humandate": "Jan 11 - 12, 2019",
    "latitude": 18.4044218,
    "longitude": -66.0463582,
    "slug": "2019-01-11-puerto_rico-R",
    "start": "2019-01-11",
    "tags": [
      {
        "name": "SWC"
      }
    ],
    "url": "https://idi-bd2k.github.io/2019-01-11-puerto_rico-R/",
    "venue": "University of Puerto Rico Río Piedras"
  },
  {
    "address": "Plantage Muidergracht 12, 1018 TV Amsterdam, Roetersstraat, 1012 WX Amsterdam, The Netherlands",
    "country": "NL",
    "end": "2019-01-15",
    "eventbrite_id": "51358690225",
    "humandate": "Jan 14 - 15, 2019",
    "latitude": 52.36349,
    "longitude": 4.91191,
    "slug": "2019-01-14-Amsterdam-Python-SWC",
    "start": "2019-01-14",
    "tags": [
      {
        "name": "SWC"
      }
    ],
    "url": "https://scienceparkstudygroup.github.io/2019-01-14-Amsterdam-Python-SWC/",
    "venue": "Computational skills for Life Scientists - Amsterdam"
  },
  {
    "address": "Orchard Room, Discovery Building, 330 N. Orchard St., Madison, WI, 53715",
    "country": "US",
    "end": "2019-01-15",
    "eventbrite_id": "",
    "humandate": "Jan 14 - 15, 2019",
    "latitude": 43.0729163,
    "longitude": -89.410268,
    "slug": "2019-01-14-uwmadison-swc",
    "start": "2019-01-14",
    "tags": [
      {
        "name": "SWC"
      }
    ],
    "url": "https://uw-madison-datascience.github.io/2019-01-14-uwmadison-swc/",
    "venue": "Software Carpentry @ UW Madison"
  },
  {
    "address": "Room 107, Mathewson-IGT Knowledge Center, 1664 North Virginia St, Reno",
    "country": "US",
    "end": "2019-01-16",
    "eventbrite_id": "",
    "humandate": "Jan 15 - 16, 2019",
    "latitude": 39.57427,
    "longitude": -119.82982,
    "slug": "2018-01-15-reno",
    "start": "2019-01-15",
    "tags": [
      {
        "name": "DC"
      }
    ],
    "url": "https://sateeshperi.github.io/2019-01-15-reno/",
    "venue": "University of Nevada, Reno"
  },
  {
    "address": "Gleueler Straße 60, 50931 Köln",
    "country": "DE",
    "end": "2019-01-16",
    "eventbrite_id": "",
    "humandate": "Jan 15 - 16, 2019",
    "latitude": 50.92465,
    "longitude": 6.91646,
    "slug": "2019-01-15-Library_Carpentry_Cologne",
    "start": "2019-01-15",
    "tags": [
      {
        "name": "LC"
      }
    ],
    "url": "https://zbmed.github.io/2019-01-15-Library_Carpentry_Cologne/",
    "venue": "ZB MED"
  },
  {
    "address": "Room 240, Avedesian Hall,  College of Pharmacy, 7 Greenhouse Rd., Kingston RI 02881",
    "country": "US",
    "end": "2019-01-16",
    "eventbrite_id": "",
    "humandate": "Jan 15 - 16, 2019",
    "latitude": 41.48942,
    "longitude": -71.52748,
    "slug": "2019-01-15-uri",
    "start": "2019-01-15",
    "tags": [
      {
        "name": "DC"
      }
    ],
    "url": "https://rhodyrstats.github.io/2019-01-15-uri/",
    "venue": "University of Rhode Island"
  },
  {
    "address": "Price Computing Center Auditorium, Lawrence, Kansas",
    "country": "US",
    "end": "2019-01-17",
    "eventbrite_id": "",
    "humandate": "Jan 16 - 17, 2019",
    "latitude": 38.95487,
    "longitude": -95.246741,
    "slug": "2019-01-16-gpn",
    "start": "2019-01-16",
    "tags": [
      {
        "name": "SWC"
      }
    ],
    "url": "https://kulibraries.github.io/2019-01-16-gpn/",
    "venue": "University of Kansas"
  },
  {
    "address": "Orchard Room, Discovery Building, 330 N. Orchard St., Madison, WI, 53715",
    "country": "US",
    "end": "2019-01-17",
    "eventbrite_id": "",
    "humandate": "Jan 16 - 17, 2019",
    "latitude": 43.0729163,
    "longitude": -89.410268,
    "slug": "2019-01-16-uwmadison-dc",
    "start": "2019-01-16",
    "tags": [
      {
        "name": "SWC"
      }
    ],
    "url": "https://uw-madison-datascience.github.io/2019-01-16-uwmadison-dc/",
    "venue": "Data Carpentry @ UW Madison"
  },
  {
    "address": "190 Doe Library, University of California, Berkeley",
    "country": "US",
    "end": "2019-01-18",
    "eventbrite_id": "",
    "humandate": "Jan 17 - 18, 2019",
    "latitude": 37.872495,
    "longitude": -122.259556,
    "slug": "2019-01-17-BIDS",
    "start": "2019-01-17",
    "tags": [
      {
        "name": "SWC"
      }
    ],
    "url": "https://code.nimahejazi.org/2019-01-17-bids/",
    "venue": "Berkeley Institute for Data Science"
  },
  {
    "address": "Butler Library, 535 W 114th St, New York, NY 10027",
    "country": "US",
    "end": "2019-01-18",
    "eventbrite_id": "",
    "humandate": "Jan 17 - 18, 2019",
    "latitude": 40.806367,
    "longitude": -73.963191,
    "slug": "2019-01-17-Columbia-Section-1",
    "start": "2019-01-17",
    "tags": [
      {
        "name": "SWC"
      }
    ],
    "url": "https://columbiaswc.github.io/2019-01-17-Columbia-Section-1/",
    "venue": "Columbia University, Computing Fundamentals with Python - Section 1"
  },
  {
    "address": "Butler Library, 535 W 114th St, New York, NY 10027",
    "country": "US",
    "end": "2019-01-18",
    "eventbrite_id": "",
    "humandate": "Jan 17 - 18, 2019",
    "latitude": 40.806367,
    "longitude": -73.963191,
    "slug": "2019-01-17-Columbia-Section-2",
    "start": "2019-01-17",
    "tags": [
      {
        "name": "SWC"
      }
    ],
    "url": "https://columbiaswc.github.io/2019-01-17-Columbia-Section-2/",
    "venue": "Columbia University, Computing Fundamentals with Python - Section 2"
  },
  {
    "address": "Butler Library, 535 W 114th St, New York, NY 10027",
    "country": "US",
    "end": "2019-01-18",
    "eventbrite_id": "",
    "humandate": "Jan 17 - 18, 2019",
    "latitude": 40.806367,
    "longitude": -73.963191,
    "slug": "2019-01-17-Columbia-Section-3",
    "start": "2019-01-17",
    "tags": [
      {
        "name": "SWC"
      }
    ],
    "url": "https://columbiaswc.github.io/2019-01-17-Columbia-Section-3/",
    "venue": "Columbia University, Computing Fundamentals with Python - Section 3"
  },
  {
    "address": "Butler Library, 535 West 114th Street, New York, NY",
    "country": "US",
    "end": "2019-01-18",
    "eventbrite_id": "",
    "humandate": "Jan 17 - 18, 2019",
    "latitude": 40.806367,
    "longitude": -73.963191,
    "slug": "2019-01-17-Columbia-Section-4",
    "start": "2019-01-17",
    "tags": [
      {
        "name": "SWC"
      }
    ],
    "url": "https://columbiaswc.github.io/2019-01-17-Columbia-Section-4/",
    "venue": "Columbia University, Computing Fundamentals with R (Section 4)"
  },
  {
    "address": "Goldsmith Lounge, Virtue Field House, Middlebury, VT 05753",
    "country": "US",
    "end": "2019-01-18",
    "eventbrite_id": "",
    "humandate": "Jan 17 - 18, 2019",
    "latitude": 44.003645,
    "longitude": -73.177909,
    "slug": "2019-01-17-middlebury",
    "start": "2019-01-17",
    "tags": [
      {
        "name": "SWC"
      }
    ],
    "url": "https://rkclement.github.io/2019-01-17-middlebury/",
    "venue": "Middlebury College"
  },
  {
    "address": "CLSC, 119 E 57th St, Chicago, IL 60637",
    "country": "US",
    "end": "2019-01-21",
    "eventbrite_id": "",
    "humandate": "Jan 20 - 21, 2019",
    "latitude": 41.791836,
    "longitude": -87.602679,
    "slug": "2019-01-12-chicago",
    "start": "2019-01-20",
    "tags": [
      {
        "name": "SWC"
      }
    ],
    "url": "https://crerecombinase.github.io/2019-01-12-chicago/",
    "venue": "University of Chicago"
  },
  {
    "address": "Room 2110, University Hall, 100 Morrissey Blvd, Boston, MA",
    "country": "US",
    "end": "2019-01-23",
    "eventbrite_id": "52371395253",
    "humandate": "Jan 22 - 23, 2019",
    "latitude": 42.31326,
    "longitude": -71.035406,
    "slug": "2019-01-22-umb",
    "start": "2019-01-22",
    "tags": [
      {
        "name": "DC"
      }
    ],
    "url": "https://jebyrnes.github.io/2019-01-22-UMB/",
    "venue": "University of Massachusetts Boston"
  },
  {
    "address": "Norwich Research Park, Norwich, NR4 7UZ",
    "country": "GB",
    "end": "2019-01-23",
    "eventbrite_id": "",
    "humandate": "Jan 22 - 23, 2019",
    "latitude": 52.621741,
    "longitude": 1.218987,
    "slug": "2019-01-23-SWC",
    "start": "2019-01-22",
    "tags": [
      {
        "name": "SWC"
      }
    ],
    "url": "https://tgac.github.io/2019-01-23-SWC/",
    "venue": "Earlham Institute"
  },
  {
    "address": "Hartley Conference Center, Mitchell Earth Sciences Building",
    "country": "US",
    "end": "2019-01-24",
    "eventbrite_id": "",
    "humandate": "Jan 23 - 24, 2019",
    "latitude": 37.426478,
    "longitude": -122.172797,
    "slug": "2019-01-23-stanford",
    "start": "2019-01-23",
    "tags": [
      {
        "name": "SWC"
      }
    ],
    "url": "https://cengel.github.io/2019-01-23-stanford/",
    "venue": "Stanford University"
  },
  {
    "address": "7 World Trade Center, 250 Greenwich St Fl 40, New York",
    "country": "US",
    "end": "2019-01-27",
    "eventbrite_id": "",
    "humandate": "Jan 26 - 27, 2019",
    "latitude": 40.766389,
    "longitude": -73.971111,
    "slug": "2019-01-26-nyas-R",
    "start": "2019-01-26",
    "tags": [
      {
        "name": "SWC"
      }
    ],
    "url": "https://matthewclark1223.github.io/2019-01-26-nyas-R/",
    "venue": "New York Academy of Sciences"
  },
  {
    "address": "TBD",
    "country": "US",
    "end": "2019-01-27",
    "eventbrite_id": "",
    "humandate": "Jan 26 - 27, 2019",
    "latitude": 39.904034,
    "longitude": -75.352318,
    "slug": "2019-01-26-swarthmore",
    "start": "2019-01-26",
    "tags": [
      {
        "name": "SWC"
      }
    ],
    "url": "https://timothylwarren.github.io/2019-01-26-swarthmore/",
    "venue": "Swarthmore College"
  },
  {
    "address": "607 Institute for Genomic Biology",
    "country": "US",
    "end": "2019-01-31",
    "eventbrite_id": "53442062648",
    "humandate": "Jan 31 - 31, 2019",
    "latitude": 40.1047754,
    "longitude": -88.2269122,
    "slug": "2019-01-31-dc-illinois",
    "start": "2019-01-31",
    "tags": [
      {
        "name": "DC"
      }
    ],
    "url": "https://swc-uiuc.github.io/2019-01-31-dc-illinois/",
    "venue": "University of Illinois"
  },
  {
    "address": "1030 National Center for Supercomputing Applications",
    "country": "US",
    "end": "2019-02-08",
    "eventbrite_id": "53441740685",
    "humandate": "Feb 07 - 08, 2019",
    "latitude": 40.1149832,
    "longitude": -88.2271851,
    "slug": "2019-02-07-illinois",
    "start": "2019-02-07",
    "tags": [
      {
        "name": "SWC"
      }
    ],
    "url": "https://swc-uiuc.github.io/2019-02-07-illinois/",
    "venue": "University of Illinois"
  },
  {
    "address": "Seminarraum Y27-H-25, Irchel Campus, Winterthurerstrasse 190, 8057 Zürich",
    "country": "CH",
    "end": "2019-02-08",
    "eventbrite_id": "",
    "humandate": "Feb 07 - 08, 2019",
    "latitude": 47.3966,
    "longitude": 8.55013,
    "slug": "2019-02-07-zurich",
    "start": "2019-02-07",
    "tags": [
      {
        "name": "SWC"
      }
    ],
    "url": "https://uzhcrs.github.io/2019-02-07-zurich/",
    "venue": "University of Zurich"
  },
  {
    "address": "100 Woodruff Cir Suite 231, Rooms 110 and 120, Atlanta, GA 30322",
    "country": "US",
    "end": "2019-02-10",
    "eventbrite_id": "",
    "humandate": "Feb 09 - 10, 2019",
    "latitude": 33.79434,
    "longitude": -84.32145,
    "slug": "2019-02-09-emory",
    "start": "2019-02-09",
    "tags": [
      {
        "name": "SWC"
      }
    ],
    "url": "https://data-science-for-scientists-atl.github.io/2019-02-09-emory/",
    "venue": "Emory University"
  },
  {
    "address": "1040 National Center for Supercomputing Applications",
    "country": "US",
    "end": "2019-02-15",
    "eventbrite_id": "53441690535",
    "humandate": "Feb 14 - 15, 2019",
    "latitude": 40.1149832,
    "longitude": -88.2271851,
    "slug": "2019-02-14-illinois",
    "start": "2019-02-14",
    "tags": [
      {
        "name": "SWC"
      }
    ],
    "url": "https://swc-uiuc.github.io/2019-02-14-illinois/",
    "venue": "University of Illinois"
  },
  {
    "address": "Norwich Research Park, Norwich, NR4 7UZ",
    "country": "GB",
    "end": "2019-03-06",
    "eventbrite_id": "",
    "humandate": "Mar 05 - 06, 2019",
    "latitude": 52.621741,
    "longitude": 1.218987,
    "slug": "2019-03-05-earlham",
    "start": "2019-03-05",
    "tags": [
      {
        "name": "DC"
      }
    ],
    "url": "https://tgac.github.io/2019-03-05-earlham/",
    "venue": "Earlham Institute"
  },
  {
    "address": "Langson Library RM 228",
    "country": "US",
    "end": "2019-03-27",
    "eventbrite_id": "54304950569",
    "humandate": "Mar 26 - 27, 2019",
    "latitude": 33.647111,
    "longitude": -117.8411,
    "slug": "2019-03-26-UCI",
    "start": "2019-03-26",
    "tags": [
      {
        "name": "SWC"
      }
    ],
    "url": "https://uci-libraries.github.io/2019-03-26-UCI/",
    "venue": "UC Irvine Libraries"
  },
  {
    "address": "Tisch Library, Room 302",
    "country": "US",
    "end": "2019-04-13",
    "eventbrite_id": "",
    "humandate": "Apr 12 - 13, 2019",
    "latitude": 42.406172,
    "longitude": -71.11884,
    "slug": "2019-04-12-tufts",
    "start": "2019-04-12",
    "tags": [
      {
        "name": "SWC"
      }
    ],
    "url": "https://nesclic.github.io/2019-04-12-tufts/",
    "venue": "Tufts University"
  },
  {
    "address": "U-residence Free University of Brussels, Generaal Jacqueslaan 271, 1050 Brussels",
    "country": "BE",
    "end": "2019-07-17",
    "eventbrite_id": "",
    "humandate": "Apr 16 - Jul 17, 2019",
    "latitude": 50.824343,
    "longitude": 4.394176,
    "slug": "2019-04-16-BRU",
    "start": "2019-04-16",
    "tags": [
      {
        "name": "SWC"
      }
    ],
    "url": "https://elixir-belgium.github.io/2019-04-16-BRU/",
    "venue": "ELIXIR-Belgium Brussels"
  },
  {
    "address": "Overwale 3, 9000 Gent. Clemenspoort: Zaal Neumann",
    "country": "BE",
    "end": "2019-05-14",
    "eventbrite_id": "",
    "humandate": "May 13 - 14, 2019",
    "latitude": 51.033718,
    "longitude": 3.70654,
    "slug": "2019-05-13-Ghent",
    "start": "2019-05-13",
    "tags": [
      {
        "name": "DC"
      }
    ],
    "url": "https://elixir-belgium.github.io/2019-05-13-Ghent/",
    "venue": "ELIXIR-BE"
  }
]
