[
  {
    "address": "FIXME",
    "country": "US",
    "end": "2018-10-23",
    "eventbrite_id": "",
    "humandate": "Oct 22 - 23, 2018",
    "latitude": 40.92569,
    "longitude": -73.141129,
    "slug": "2018-10-22-Stonybrook-IACS-R",
    "start": "2018-10-22",
    "tags": [
      {
        "name": "SWC"
      }
    ],
    "url": "https://jjborrelli.github.io/2018-10-22-Stonybrook-IACS-R/",
    "venue": "Stonybrook"
  },
  {
    "address": "East Asia Library Room 224, 518 Memorial Way, Stanford University",
    "country": "US",
    "end": "2018-10-23",
    "eventbrite_id": "",
    "humandate": "Oct 22 - 23, 2018",
    "latitude": 37.429175,
    "longitude": -122.167326,
    "slug": "2018-10-22-ttt-stanford",
    "start": "2018-10-22",
    "tags": [
      {
        "name": "TTT"
      }
    ],
    "url": "https://amyehodge.github.io/2018-10-22-ttt-stanford/",
    "venue": "Stanford University"
  },
  {
    "address": "Woods Hole, MA 02543, USA",
    "country": "US",
    "end": "2018-10-23",
    "eventbrite_id": "",
    "humandate": "Oct 22 - 23, 2018",
    "latitude": 41.524235,
    "longitude": -70.671161,
    "slug": "2018-10-22-whoi",
    "start": "2018-10-22",
    "tags": [
      {
        "name": "SWC"
      }
    ],
    "url": "https://jules32.github.io/2018-10-22-whoi/",
    "venue": "Woods Hole Oceanographic Institution"
  },
  {
    "address": "Rockefeller Library, 10 Prospect Street, Providence, RI 02912",
    "country": "US",
    "end": "2018-10-23",
    "eventbrite_id": "48562683293",
    "humandate": "Oct 22 - 23, 2018",
    "latitude": 41.825748,
    "longitude": -71.405109,
    "slug": "2018-10-22-yale",
    "start": "2018-10-22",
    "tags": [
      {
        "name": "LC"
      }
    ],
    "url": "https://nesclic.github.io/2018-10-22-NEASIST-Brown/",
    "venue": "Brown University Library"
  },
  {
    "address": "Informatics Institute Lecture Room",
    "country": "US",
    "end": "2018-10-24",
    "eventbrite_id": "",
    "humandate": "Oct 23 - 24, 2018",
    "latitude": 29.64804,
    "longitude": -82.34406,
    "slug": "2018-10-23-ufii-geospatial",
    "start": "2018-10-23",
    "tags": [
      {
        "name": "DC"
      }
    ],
    "url": "https://uf-carpentry.github.io/2018-10-23-ufii-geospatial/",
    "venue": "UF Informatics Institute Geospatial Workshop"
  },
  {
    "address": "Gleueler Straße 60, 50931 Köln",
    "country": "DE",
    "end": "2018-10-25",
    "eventbrite_id": "",
    "humandate": "Oct 24 - 25, 2018",
    "latitude": 50.924681,
    "longitude": 50.924681,
    "slug": "2018-10-24-Library_Carpentry_Cologne",
    "start": "2018-10-24",
    "tags": [
      {
        "name": "LC"
      }
    ],
    "url": "https://zbmed.github.io/2018-10-24-Library_Carpentry_Cologne/",
    "venue": "ZB MED"
  },
  {
    "address": "15 Lippitt Rd, Kingston, RI 02881",
    "country": "US",
    "end": "2018-10-25",
    "eventbrite_id": "",
    "humandate": "Oct 24 - 25, 2018",
    "latitude": 41.4877084,
    "longitude": -71.5288092,
    "slug": "2018-10-24-ttt-uri",
    "start": "2018-10-24",
    "tags": [
      {
        "name": "TTT"
      }
    ],
    "url": "https://jt14den.github.io/2018-10-24-ttt-providence/",
    "venue": "Carrothers Library, URI Kingston Campus"
  },
  {
    "address": "Room: Vergaderzaal B0.1, Campus Coupure, Coupure Links 653, 9000 Gent, Belgium",
    "country": "BE",
    "end": "2018-10-25",
    "eventbrite_id": "",
    "humandate": "Oct 24 - 25, 2018",
    "latitude": 51.052779,
    "longitude": 3.708959,
    "slug": "2018-10-24-ugent",
    "start": "2018-10-24",
    "tags": [
      {
        "name": "SWC"
      }
    ],
    "url": "https://orchid00.github.io/2018-10-24-ugent/",
    "venue": "University of Ghent"
  },
  {
    "address": "Building 13, Vaal Library Research Commons",
    "country": "ZA",
    "end": "2018-10-25",
    "eventbrite_id": "",
    "humandate": "Oct 24 - 25, 2018",
    "latitude": -26.72557,
    "longitude": 27.87926,
    "slug": "2018-10-25-Open-Access-Week",
    "start": "2018-10-24",
    "tags": [
      {
        "name": "DC"
      }
    ],
    "url": "https://nwu-eresearch.github.io/2018-10-25-Open-Access-Week/",
    "venue": "North West University, Vaal Campus Library"
  },
  {
    "address": "Old Dominion University, Perry Library Learning Commons, Conference Room 1310-1311",
    "country": "US",
    "end": "2018-10-26",
    "eventbrite_id": "",
    "humandate": "Oct 25 - 26, 2018",
    "latitude": 36.884672,
    "longitude": -76.300612,
    "slug": "2018-10-25-odu",
    "start": "2018-10-25",
    "tags": [
      {
        "name": "SWC"
      }
    ],
    "url": "https://rbavery.github.io/2018-10-25-odu/",
    "venue": "Old Dominion University"
  },
  {
    "address": "Willis Library, Room 443, 1506 Highland St., Denton, TX 76203",
    "country": "US",
    "end": "2018-10-26",
    "eventbrite_id": "50968632552",
    "humandate": "Oct 25 - 26, 2018",
    "latitude": 33.210068,
    "longitude": -97.148954,
    "slug": "2018-10-25-unt-swc",
    "start": "2018-10-25",
    "tags": [
      {
        "name": "SWC"
      }
    ],
    "url": "https://unt-carpentries.github.io/2018-10-25-unt-swc/",
    "venue": "University of North Texas"
  },
  {
    "address": "Room 202, PACCAR building (2001 Grimes Way), Pullman, WA",
    "country": "US",
    "end": "2018-10-26",
    "eventbrite_id": "",
    "humandate": "Oct 25 - 26, 2018",
    "latitude": 46.7295857,
    "longitude": -117.1545807,
    "slug": "2018-10-25-wsu",
    "start": "2018-10-25",
    "tags": [
      {
        "name": "DC"
      }
    ],
    "url": "https://mbrousil.github.io/2018-10-25-wsu/",
    "venue": "Washington State University"
  },
  {
    "address": "강원도 춘천시 한림대학길 1 공학관 1116-3호",
    "country": "KR",
    "end": "2018-10-28",
    "eventbrite_id": "51353898894",
    "humandate": "Oct 27 - 28, 2018",
    "latitude": 37.8863,
    "longitude": 127.7358,
    "slug": "2018-10-27-hallym",
    "start": "2018-10-27",
    "tags": [
      {
        "name": "SWC"
      }
    ],
    "url": "https://statkclee.github.io/2018-10-27-hallym/",
    "venue": "한림대학교"
  },
  {
    "address": "Frontier Room, Discovery Hall, Building 3400, Richland WA",
    "country": "US",
    "end": "2018-10-30",
    "eventbrite_id": "",
    "humandate": "Oct 29 - 30, 2018",
    "latitude": 46.3513347,
    "longitude": -119.2783712,
    "slug": "2018-10-29-PNNL-SWC",
    "start": "2018-10-29",
    "tags": [
      {
        "name": "SWC"
      }
    ],
    "url": "https://pnnl-compbio.github.io/2018-10-29-PNNL-SWC/",
    "venue": "Pacific Northwest National Laboratory"
  },
  {
    "address": "Barnard Fuller Building, Anzio Road, Observatory, Cape Town",
    "country": "ZA",
    "end": "2018-10-31",
    "eventbrite_id": "",
    "humandate": "Oct 30 - 31, 2018",
    "latitude": -33.93755,
    "longitude": 18.51933,
    "slug": "2018-10-30-SWC-course",
    "start": "2018-10-30",
    "tags": [
      {
        "name": "SWC"
      }
    ],
    "url": "https://h3abionet.github.io/2018-10-30-SWC-course/",
    "venue": "UCT Faculty of Health Sciences - Postgrad Room 2"
  },
  {
    "address": "Continuing Education Centre, Grahamstown",
    "country": "ZA",
    "end": "2018-11-09",
    "eventbrite_id": "",
    "humandate": "Nov 07 - 09, 2018",
    "latitude": -33.3170479,
    "longitude": 26.5108861,
    "slug": "2018-11-07-Rhodes-Uni",
    "start": "2018-11-07",
    "tags": [
      {
        "name": "DC"
      }
    ],
    "url": "https://TENET-RCCPII.github.io/2018-11-07-Rhodes-Uni/",
    "venue": "Rhodes University"
  },
  {
    "address": "Skills Centre, Sefako Makgatho University",
    "country": "ZA",
    "end": "2018-11-09",
    "eventbrite_id": "",
    "humandate": "Nov 07 - 09, 2018",
    "latitude": -25.6211893,
    "longitude": 28.0147046,
    "slug": "2018-11-07-SMU",
    "start": "2018-11-07",
    "tags": [
      {
        "name": "DC"
      }
    ],
    "url": "https://tenet-rccpii.github.io/2018-11-07-SMU/",
    "venue": "Sefako Makgatho University"
  },
  {
    "address": "Teorifagbygget 1 room 1.425 (Nov 8) and room 1.343 (Nov 9), UiT",
    "country": "NO",
    "end": "2018-11-09",
    "eventbrite_id": "",
    "humandate": "Nov 08 - 09, 2018",
    "latitude": 69.681359,
    "longitude": 18.972166,
    "slug": "2018-11-08-uit",
    "start": "2018-11-08",
    "tags": [
      {
        "name": "SWC"
      }
    ],
    "url": "https://uit-no.github.io/2018-11-08-uit/",
    "venue": "UiT The Arctic University of Norway"
  },
  {
    "address": "Business & Science Building, 227 Penn Street, Camden, NJ 08102",
    "country": "US",
    "end": "2018-11-10",
    "eventbrite_id": "",
    "humandate": "Nov 09 - 10, 2018",
    "latitude": 39.948788,
    "longitude": -75.124219,
    "slug": "2018-11-09-rutgers_camden",
    "start": "2018-11-09",
    "tags": [
      {
        "name": "SWC"
      }
    ],
    "url": "https://sshende.github.io/2018-11-09-rutgers_camden/",
    "venue": "Rutgers University, Camden"
  },
  {
    "address": "Tisch Library, Room 302",
    "country": "US",
    "end": "2018-11-10",
    "eventbrite_id": "50143390230",
    "humandate": "Nov 09 - 10, 2018",
    "latitude": 42.406172,
    "longitude": -71.11884,
    "slug": "2018-11-09-tufts",
    "start": "2018-11-09",
    "tags": [
      {
        "name": "SWC"
      }
    ],
    "url": "https://nesclic.github.io/2018-11-09-tufts/",
    "venue": "Tufts University"
  },
  {
    "address": "University of Fort Hare, Alice Campus",
    "country": "ZA",
    "end": "2018-11-14",
    "eventbrite_id": "",
    "humandate": "Nov 12 - 14, 2018",
    "latitude": -32.7891356,
    "longitude": 26.7897755,
    "slug": "2018-11-12-UFH-Alice",
    "start": "2018-11-12",
    "tags": [
      {
        "name": "DC"
      }
    ],
    "url": "https://tenet-rccpii.github.io/2018-11-12-UFH-Alice/",
    "venue": "University of Fort Hare - Alice Campus"
  },
  {
    "address": "CAD Lab, School of Environmental Sciences, University of Venda, University Street",
    "country": "ZA",
    "end": "2018-11-15",
    "eventbrite_id": "",
    "humandate": "Nov 13 - 15, 2018",
    "latitude": -22.9761353,
    "longitude": 30.444291,
    "slug": "2018-11-13-UNIVEN",
    "start": "2018-11-13",
    "tags": [
      {
        "name": "DC"
      }
    ],
    "url": "https://tenet-rccpii.github.io/2018-11-13-UNIVEN/",
    "venue": "University of Venda"
  },
  {
    "address": "Room 1H, Via Mesiano 77, 38123 Trento",
    "country": "IT",
    "end": "2018-11-15",
    "eventbrite_id": "",
    "humandate": "Nov 14 - 15, 2018",
    "latitude": 46.06703,
    "longitude": 11.13908,
    "slug": "2018-11-14-trento",
    "start": "2018-11-14",
    "tags": [
      {
        "name": "SWC"
      }
    ],
    "url": "https://mkcor.github.io/2018-11-14-trento/",
    "venue": "University of Trento"
  },
  {
    "address": "Hodler, Rolex Learning Center, Campus de l'EPFL, 1015 Lausanne",
    "country": "CH",
    "end": "2018-11-29",
    "eventbrite_id": "",
    "humandate": "Nov 20 - 29, 2018",
    "latitude": 46.518304,
    "longitude": 6.568269,
    "slug": "2018-11-20-epfl",
    "start": "2018-11-20",
    "tags": [
      {
        "name": "SWC"
      }
    ],
    "url": "https://epfllibrary.github.io/2018-11-20-epfl/",
    "venue": "Rolex Learning Center - Hodler"
  },
  {
    "address": "Nicolas Cabrera 13, Madrid, Spain",
    "country": "ES",
    "end": "2018-11-29",
    "eventbrite_id": "48796912880",
    "humandate": "Nov 28 - 29, 2018",
    "latitude": 40.549532,
    "longitude": -3.687608,
    "slug": "2018-11-28-cftmat",
    "start": "2018-11-28",
    "tags": [
      {
        "name": "SWC"
      }
    ],
    "url": "https://adgdt.github.io/2018-11-28-cftmat/",
    "venue": "Centro de Física Teórica y Matemáticas"
  },
  {
    "address": "Langson Library RM 570",
    "country": "US",
    "end": "2018-11-29",
    "eventbrite_id": "50242892845",
    "humandate": "Nov 28 - 29, 2018",
    "latitude": 33.647111,
    "longitude": -117.8411,
    "slug": "2018-11-28-ucirvine",
    "start": "2018-11-28",
    "tags": [
      {
        "name": "SWC"
      }
    ],
    "url": "https://uci-libraries.github.io/2018-11-28-UCI/",
    "venue": "UC Irvine Libraries"
  },
  {
    "address": "Gleueler Straße 60, 50931 Köln",
    "country": "DE",
    "end": "2018-12-13",
    "eventbrite_id": "",
    "humandate": "Dec 12 - 13, 2018",
    "latitude": 50.924681,
    "longitude": 50.924681,
    "slug": "2018-12-12-Library_Carpentry_Cologne",
    "start": "2018-12-12",
    "tags": [
      {
        "name": "LC"
      }
    ],
    "url": "https://zbmed.github.io/2018-12-12-Library_Carpentry_Cologne/",
    "venue": "ZB MED"
  },
  {
    "address": "George Mason University Libraries, 1014 A & B Fenwick Library, 4400 University Dr, Fairfax, VA 22030",
    "country": "US",
    "end": "2018-12-14",
    "eventbrite_id": "",
    "humandate": "Dec 13 - 14, 2018",
    "latitude": 38.832139,
    "longitude": -77.3093677,
    "slug": "2018-12-13-GMU",
    "start": "2018-12-13",
    "tags": [
      {
        "name": "LC"
      }
    ],
    "url": "https://libcce.github.io/2018-12-13-GMU/",
    "venue": "George Mason University Libraries"
  },
  {
    "address": "Norwich Research Park, Norwich, NR4 7UZ",
    "country": "GB",
    "end": "2019-01-23",
    "eventbrite_id": "",
    "humandate": "Jan 22 - 23, 2019",
    "latitude": 52.621741,
    "longitude": 1.218987,
    "slug": "2019-01-23-SWC",
    "start": "2019-01-22",
    "tags": [
      {
        "name": "SWC"
      }
    ],
    "url": "https://tgac.github.io/2019-01-23-SWC/",
    "venue": "Earlham Institute"
  }
]
