[
  {
    "address": "CFM Computer Room SSB-008A, basement floor",
    "country": "ES",
    "end": "2018-12-20",
    "eventbrite_id": "",
    "humandate": "Dec 05 - 20, 2018",
    "latitude": 43.305667,
    "longitude": -2.009502,
    "slug": "2018-12-05-cfm",
    "start": "2018-12-05",
    "tags": [
      {
        "name": "SWC"
      }
    ],
    "url": "https://scw-ss.github.io/2018-12-05-cfm/",
    "venue": "Centro de Física de Materiales (CSIC-UPV/EHU)"
  },
  {
    "address": "Aksum, Ethiopia",
    "country": "ET",
    "end": "2018-12-21",
    "eventbrite_id": "",
    "humandate": "Dec 19 - 21, 2018",
    "latitude": 9.03314,
    "longitude": 38.75008,
    "slug": "2018-12-19-SWC-AKU",
    "start": "2018-12-19",
    "tags": [
      {
        "name": "SWC"
      }
    ],
    "url": "https://dagimy.github.io/2018-12-19-SWC-AKU/",
    "venue": "Aksum University"
  },
  {
    "address": "Bizzell Memorial Library, HCLC Classroom LL123, 401 W. Brooks St, Norman, OK 73019",
    "country": "US",
    "end": "2018-12-20",
    "eventbrite_id": "53114200002",
    "humandate": "Dec 19 - 20, 2018",
    "latitude": 35.208275,
    "longitude": -97.445848,
    "slug": "2018-12-19-ou-swc",
    "start": "2018-12-19",
    "tags": [
      {
        "name": "SWC"
      }
    ],
    "url": "https://oulib-swc.github.io/2018-12-19-ou-swc/",
    "venue": "University of Oklahoma"
  },
  {
    "address": "Seminar Room, Faculty of Mathematical Sciences, Al-Gamaa Street, Khartoum",
    "country": "SD",
    "end": "2018-12-22",
    "eventbrite_id": "",
    "humandate": "Dec 21 - 22, 2018",
    "latitude": 15.609321,
    "longitude": 32.541405,
    "slug": "2018-12-21-khartoum",
    "start": "2018-12-21",
    "tags": [
      {
        "name": "DC"
      }
    ],
    "url": "https://elssam.github.io/2018-12-21-khartoum/",
    "venue": "University of Khartoum"
  },
  {
    "address": "Room 360, Shields Library, 100 North West Quad, Davis, CA 95616",
    "country": "US",
    "end": "2019-01-04",
    "eventbrite_id": "",
    "humandate": "Jan 03 - 04, 2019",
    "latitude": 38.539534,
    "longitude": -121.748514,
    "slug": "2019-01-03-Davis",
    "start": "2019-01-03",
    "tags": [
      {
        "name": "DC"
      }
    ],
    "url": "https://micheletobias.github.io/2019-01-03-Davis/",
    "venue": "UC Davis Library"
  },
  {
    "address": "Peter Kiewit Institute - Room 158, 1110 S 67th St, Omaha, NE 68182",
    "country": "US",
    "end": "2019-01-04",
    "eventbrite_id": "",
    "humandate": "Jan 03 - 04, 2019",
    "latitude": 41.247015,
    "longitude": -96.016604,
    "slug": "2019-01-03-UNO",
    "start": "2019-01-03",
    "tags": [
      {
        "name": "DC"
      }
    ],
    "url": "https://unlhcc.github.io/2019-01-03-UNO/",
    "venue": "University of Nebraska at Omaha"
  },
  {
    "address": "Room 211, Washington State Convention Center, 705 Pike St., Seattle, WA 98101",
    "country": "US",
    "end": "2019-01-06",
    "eventbrite_id": "",
    "humandate": "Jan 05 - 06, 2019",
    "latitude": 47.61267,
    "longitude": -122.33203,
    "slug": "2019-01-05-aas",
    "start": "2019-01-05",
    "tags": [
      {
        "name": "SWC"
      }
    ],
    "url": "https://abostroem.github.io/2019-01-05-aas/",
    "venue": "Software Carpentry at AAS 223"
  },
  {
    "address": "Business and Aerospace Building (S316 and S326), 1642 MTSU Blvd, Murfreesboro, TN",
    "country": "US",
    "end": "2019-01-09",
    "eventbrite_id": "",
    "humandate": "Jan 07 - 09, 2019",
    "latitude": 35.8480208,
    "longitude": -86.3654459,
    "slug": "2019-01-07-mtsu",
    "start": "2019-01-07",
    "tags": [
      {
        "name": "LC"
      }
    ],
    "url": "https://libcce.github.io/2019-01-07-MTSU/",
    "venue": "MTSU (Business & Aerospace Building)"
  },
  {
    "address": "Engineering Research Center ENRC 3211, 700 Research Center Blvd, Fayetteville, AR 72701",
    "country": "US",
    "end": "2019-01-08",
    "eventbrite_id": "",
    "humandate": "Jan 07 - 08, 2019",
    "latitude": 36.042345,
    "longitude": -94.168058,
    "slug": "2019-01-07-uark",
    "start": "2019-01-07",
    "tags": [
      {
        "name": "SWC"
      }
    ],
    "url": "https://software-carpentry-uark.github.io/2019-01-07-uark/",
    "venue": "Software Carpentry @ University of Arkansas"
  },
  {
    "address": "Du Bois Library, 154 Hicks Way, Amherst, MA 01003",
    "country": "US",
    "end": "2019-01-09",
    "eventbrite_id": "",
    "humandate": "Jan 08 - 09, 2019",
    "latitude": 42.389813,
    "longitude": -72.52825,
    "slug": "2019-01-08-umass",
    "start": "2019-01-08",
    "tags": [
      {
        "name": "SWC"
      }
    ],
    "url": "https://nesclic.github.io/2019-01-08-umass/",
    "venue": "University of Massachusetts Amherst"
  },
  {
    "address": "Hunt Library, IDeaTE Studio A, 1st floor, 4909 Frew Street, Pittsburgh, PA 15217",
    "country": "US",
    "end": "2019-01-10",
    "eventbrite_id": "53446211056",
    "humandate": "Jan 09 - 10, 2019",
    "latitude": 40.4410639,
    "longitude": -79.9439424,
    "slug": "2019-01-09-carnegie",
    "start": "2019-01-09",
    "tags": [
      {
        "name": "SWC"
      }
    ],
    "url": "https://lo5an.github.io/2019-01-09-carnegie/",
    "venue": "Carnegie Mellon University"
  },
  {
    "address": "TBD,",
    "country": "US",
    "end": "2019-01-11",
    "eventbrite_id": "53747482166",
    "humandate": "Jan 10 - 11, 2019",
    "latitude": 40.1149832,
    "longitude": -88.2271851,
    "slug": "2019-01-10-dch-illinois",
    "start": "2019-01-10",
    "tags": [
      {
        "name": "SWC"
      },
      {
        "name": "DC"
      },
      {
        "name": "LC"
      }
    ],
    "url": "https://swc-uiuc.github.io/2019-01-10-dch-illinois/",
    "venue": "University of Illinois"
  },
  {
    "address": "4 Soranou Ephessiou St., 115 27 Athens, Greece",
    "country": "GR",
    "end": "2019-01-11",
    "eventbrite_id": "52153548668",
    "humandate": "Jan 10 - 11, 2019",
    "latitude": 37.991431,
    "longitude": 23.780932,
    "slug": "2019-01-10-elixir-athens",
    "start": "2019-01-10",
    "tags": [
      {
        "name": "SWC"
      }
    ],
    "url": "https://fpsom.github.io/2019-01-10-elixir-athens/",
    "venue": "BRFAA - Biomedical Research Foundation Academy of Athens"
  },
  {
    "address": "Plantage Muidergracht 12, 1018 TV Amsterdam, Roetersstraat, 1012 WX Amsterdam, The Netherlands",
    "country": "NL",
    "end": "2019-01-15",
    "eventbrite_id": "51358690225",
    "humandate": "Jan 14 - 15, 2019",
    "latitude": 52.36349,
    "longitude": 4.91191,
    "slug": "2019-01-14-Amsterdam-Python-SWC",
    "start": "2019-01-14",
    "tags": [
      {
        "name": "SWC"
      }
    ],
    "url": "https://scienceparkstudygroup.github.io/2019-01-14-Amsterdam-Python-SWC/",
    "venue": "Computational skills for Life Scientists - Amsterdam"
  },
  {
    "address": "Orchard Room, Discovery Building, 330 N. Orchard St., Madison, WI, 53715",
    "country": "US",
    "end": "2019-01-15",
    "eventbrite_id": "",
    "humandate": "Jan 14 - 15, 2019",
    "latitude": 43.0729163,
    "longitude": -89.410268,
    "slug": "2019-01-14-uwmadison-swc",
    "start": "2019-01-14",
    "tags": [
      {
        "name": "SWC"
      }
    ],
    "url": "https://uw-madison-datascience.github.io/2019-01-14-uwmadison-swc/",
    "venue": "Software Carpentry @ UW Madison"
  },
  {
    "address": "Room 107, Mathewson-IGT Knowledge Center, 1664 North Virginia St, Reno",
    "country": "US",
    "end": "2019-01-16",
    "eventbrite_id": "",
    "humandate": "Jan 15 - 16, 2019",
    "latitude": 39.57427,
    "longitude": -119.82982,
    "slug": "2018-01-15-reno",
    "start": "2019-01-15",
    "tags": [
      {
        "name": "DC"
      }
    ],
    "url": "https://sateeshperi.github.io/2019-01-15-reno/",
    "venue": "University of Nevada, Reno"
  },
  {
    "address": "Room 240, Avedesian Hall,  College of Pharmacy, 7 Greenhouse Rd., Kingston RI 02881",
    "country": "US",
    "end": "2019-01-16",
    "eventbrite_id": "",
    "humandate": "Jan 15 - 16, 2019",
    "latitude": 41.48942,
    "longitude": -71.52748,
    "slug": "2019-01-15-uri",
    "start": "2019-01-15",
    "tags": [
      {
        "name": "DC"
      }
    ],
    "url": "https://rhodyrstats.github.io/2019-01-15-uri/",
    "venue": "University of Rhode Island"
  },
  {
    "address": "Price Computing Center Auditorium, Lawrence, Kansas",
    "country": "US",
    "end": "2019-01-17",
    "eventbrite_id": "",
    "humandate": "Jan 16 - 17, 2019",
    "latitude": 38.95487,
    "longitude": -95.246741,
    "slug": "2019-01-16-gpn",
    "start": "2019-01-16",
    "tags": [
      {
        "name": "SWC"
      }
    ],
    "url": "https://kulibraries.github.io/2019-01-16-gpn/",
    "venue": "University of Kansas"
  },
  {
    "address": "Orchard Room, Discovery Building, 330 N. Orchard St., Madison, WI, 53715",
    "country": "US",
    "end": "2019-01-17",
    "eventbrite_id": "",
    "humandate": "Jan 16 - 17, 2019",
    "latitude": 43.0729163,
    "longitude": -89.410268,
    "slug": "2019-01-16-uwmadison-dc",
    "start": "2019-01-16",
    "tags": [
      {
        "name": "SWC"
      }
    ],
    "url": "https://uw-madison-datascience.github.io/2019-01-16-uwmadison-dc/",
    "venue": "Data Carpentry @ UW Madison"
  },
  {
    "address": "Butler Library, 535 W 114th St, New York, NY 10027",
    "country": "US",
    "end": "2019-01-18",
    "eventbrite_id": "",
    "humandate": "Jan 17 - 18, 2019",
    "latitude": 40.806367,
    "longitude": -73.963191,
    "slug": "2019-01-17-Columbia-Section-1",
    "start": "2019-01-17",
    "tags": [
      {
        "name": "SWC"
      }
    ],
    "url": "https://columbiaswc.github.io/2019-01-17-Columbia-Section-1/",
    "venue": "Columbia University, Computing Fundamentals with Python - Section 1"
  },
  {
    "address": "Butler Library, 535 W 114th St, New York, NY 10027",
    "country": "US",
    "end": "2019-01-18",
    "eventbrite_id": "",
    "humandate": "Jan 17 - 18, 2019",
    "latitude": 40.806367,
    "longitude": -73.963191,
    "slug": "2019-01-17-Columbia-Section-2",
    "start": "2019-01-17",
    "tags": [
      {
        "name": "SWC"
      }
    ],
    "url": "https://columbiaswc.github.io/2019-01-17-Columbia-Section-2/",
    "venue": "Columbia University, Computing Fundamentals with Python - Section 2"
  },
  {
    "address": "Butler Library, 535 W 114th St, New York, NY 10027",
    "country": "US",
    "end": "2019-01-18",
    "eventbrite_id": "",
    "humandate": "Jan 17 - 18, 2019",
    "latitude": 40.806367,
    "longitude": -73.963191,
    "slug": "2019-01-17-Columbia-Section-3",
    "start": "2019-01-17",
    "tags": [
      {
        "name": "SWC"
      }
    ],
    "url": "https://columbiaswc.github.io/2019-01-17-Columbia-Section-3/",
    "venue": "Columbia University, Computing Fundamentals with Python - Section 3"
  },
  {
    "address": "CLSC, 119 E 57th St, Chicago, IL 60637",
    "country": "US",
    "end": "2019-01-21",
    "eventbrite_id": "",
    "humandate": "Jan 20 - 21, 2019",
    "latitude": 41.791836,
    "longitude": -87.602679,
    "slug": "2019-01-12-chicago",
    "start": "2019-01-20",
    "tags": [
      {
        "name": "SWC"
      }
    ],
    "url": "https://crerecombinase.github.io/2019-01-12-chicago/",
    "venue": "University of Chicago"
  },
  {
    "address": "Room 2110, University Hall, 100 Morrissey Blvd, Boston, MA",
    "country": "US",
    "end": "2019-01-23",
    "eventbrite_id": "52371395253",
    "humandate": "Jan 22 - 23, 2019",
    "latitude": 42.31326,
    "longitude": -71.035406,
    "slug": "2019-01-22-umb",
    "start": "2019-01-22",
    "tags": [
      {
        "name": "DC"
      }
    ],
    "url": "https://jebyrnes.github.io/2019-01-22-UMB/",
    "venue": "University of Massachusetts Boston"
  },
  {
    "address": "Norwich Research Park, Norwich, NR4 7UZ",
    "country": "GB",
    "end": "2019-01-23",
    "eventbrite_id": "",
    "humandate": "Jan 22 - 23, 2019",
    "latitude": 52.621741,
    "longitude": 1.218987,
    "slug": "2019-01-23-SWC",
    "start": "2019-01-22",
    "tags": [
      {
        "name": "SWC"
      }
    ],
    "url": "https://tgac.github.io/2019-01-23-SWC/",
    "venue": "Earlham Institute"
  },
  {
    "address": "Hartley Conference Center, Mitchell Earth Sciences Building",
    "country": "US",
    "end": "2019-01-24",
    "eventbrite_id": "",
    "humandate": "Jan 23 - 24, 2019",
    "latitude": 37.426478,
    "longitude": -122.172797,
    "slug": "2019-01-23-stanford",
    "start": "2019-01-23",
    "tags": [
      {
        "name": "SWC"
      }
    ],
    "url": "https://cengel.github.io/2019-01-23-stanford/",
    "venue": "Stanford University"
  },
  {
    "address": "7 World Trade Center, 250 Greenwich St Fl 40, New York",
    "country": "US",
    "end": "2019-01-27",
    "eventbrite_id": "",
    "humandate": "Jan 26 - 27, 2019",
    "latitude": 40.766389,
    "longitude": -73.971111,
    "slug": "2019-01-26-nyas-R",
    "start": "2019-01-26",
    "tags": [
      {
        "name": "SWC"
      }
    ],
    "url": "https://matthewclark1223.github.io/2019-01-26-nyas-R/",
    "venue": "New York Academy of Sciences"
  },
  {
    "address": "TBD",
    "country": "US",
    "end": "2019-01-27",
    "eventbrite_id": "",
    "humandate": "Jan 26 - 27, 2019",
    "latitude": 39.904034,
    "longitude": -75.352318,
    "slug": "2019-01-26-swarthmore",
    "start": "2019-01-26",
    "tags": [
      {
        "name": "SWC"
      }
    ],
    "url": "https://timothylwarren.github.io/2019-01-26-swarthmore/",
    "venue": "Swarthmore College"
  },
  {
    "address": "Seminarraum Y27-H-25, Irchel Campus, Winterthurerstrasse 190, 8057 Zürich",
    "country": "CH",
    "end": "2019-02-08",
    "eventbrite_id": "",
    "humandate": "Feb 07 - 08, 2019",
    "latitude": 47.3966,
    "longitude": 8.55013,
    "slug": "2019-02-07-zurich",
    "start": "2019-02-07",
    "tags": [
      {
        "name": "SWC"
      }
    ],
    "url": "https://uzhcrs.github.io/2019-02-07-zurich/",
    "venue": "University of Zurich"
  }
]
