[
  {
    "address": "Edmon Low Library, Room 206, Stillwater, OK 74078",
    "country": "US",
    "end": "2019-10-11",
    "eventbrite_id": "54004288280",
    "humandate": "Jan 10 - Oct 11, 2019",
    "latitude": 36.12297,
    "longitude": -97.069754,
    "slug": "2019-01-10-okstate",
    "start": "2019-01-10",
    "tags": [
      {
        "name": "SWC"
      }
    ],
    "url": "https://osu-carpentry.github.io/2019-01-10-okstate/",
    "venue": "Oklahoma State University"
  },
  {
    "address": "CLSC, 119 E 57th St, Chicago, IL 60637",
    "country": "US",
    "end": "2019-01-21",
    "eventbrite_id": "",
    "humandate": "Jan 20 - 21, 2019",
    "latitude": 41.791836,
    "longitude": -87.602679,
    "slug": "2019-01-12-chicago",
    "start": "2019-01-20",
    "tags": [
      {
        "name": "SWC"
      }
    ],
    "url": "https://crerecombinase.github.io/2019-01-12-chicago/",
    "venue": "University of Chicago"
  },
  {
    "address": "1100 Fairview Ave. N., Seattle, WA 98109",
    "country": "US",
    "end": "2019-01-25",
    "eventbrite_id": "",
    "humandate": "Jan 22 - 25, 2019",
    "latitude": 47.628251,
    "longitude": -122.330025,
    "slug": "2019-01-22-fredhutch",
    "start": "2019-01-22",
    "tags": [
      {
        "name": "SWC"
      }
    ],
    "url": "https://fredhutchio.github.io/2019-01-22-fredhutch/",
    "venue": "Fred Hutch"
  },
  {
    "address": "Internet",
    "country": "W3",
    "end": "2019-01-23",
    "eventbrite_id": "",
    "humandate": "Jan 22 - 23, 2019",
    "latitude": -48.876667,
    "longitude": -123.393333,
    "slug": "2019-01-22-ttt-online-westeurope",
    "start": "2019-01-22",
    "tags": [
      {
        "name": "TTT"
      },
      {
        "name": "online"
      }
    ],
    "url": "https://annefou.github.io/2019-01-22-ttt-online-westeurope/",
    "venue": "Internet"
  },
  {
    "address": "Room 2110, University Hall, 100 Morrissey Blvd, Boston, MA",
    "country": "US",
    "end": "2019-01-23",
    "eventbrite_id": "52371395253",
    "humandate": "Jan 22 - 23, 2019",
    "latitude": 42.31326,
    "longitude": -71.035406,
    "slug": "2019-01-22-umb",
    "start": "2019-01-22",
    "tags": [
      {
        "name": "DC"
      }
    ],
    "url": "https://jebyrnes.github.io/2019-01-22-UMB/",
    "venue": "University of Massachusetts Boston"
  },
  {
    "address": "Norwich Research Park, Norwich, NR4 7UZ",
    "country": "GB",
    "end": "2019-01-23",
    "eventbrite_id": "",
    "humandate": "Jan 22 - 23, 2019",
    "latitude": 52.621741,
    "longitude": 1.218987,
    "slug": "2019-01-23-SWC",
    "start": "2019-01-22",
    "tags": [
      {
        "name": "SWC"
      }
    ],
    "url": "https://tgac.github.io/2019-01-23-earlham/",
    "venue": "Earlham Institute"
  },
  {
    "address": "Internet",
    "country": "W3",
    "end": "2019-01-24",
    "eventbrite_id": "",
    "humandate": "Jan 23 - 24, 2019",
    "latitude": -48.876667,
    "longitude": -123.393333,
    "slug": "2019-01-22-ttt-online_EST",
    "start": "2019-01-23",
    "tags": [
      {
        "name": "TTT"
      },
      {
        "name": "online"
      }
    ],
    "url": "https://kcranston.github.io/2019-01-22-ttt-online/",
    "venue": "Internet"
  },
  {
    "address": "Hartley Conference Center, Mitchell Earth Sciences Building",
    "country": "US",
    "end": "2019-01-24",
    "eventbrite_id": "",
    "humandate": "Jan 23 - 24, 2019",
    "latitude": 37.426478,
    "longitude": -122.172797,
    "slug": "2019-01-23-stanford",
    "start": "2019-01-23",
    "tags": [
      {
        "name": "SWC"
      }
    ],
    "url": "https://cengel.github.io/2019-01-23-stanford/",
    "venue": "Stanford University"
  },
  {
    "address": "Annex 405, West Campus Library, TAMU",
    "country": "US",
    "end": "2019-01-25",
    "eventbrite_id": "",
    "humandate": "Jan 24 - 25, 2019",
    "latitude": 30.627977,
    "longitude": -96.334404,
    "slug": "2019-01-24-tamu",
    "start": "2019-01-24",
    "tags": [
      {
        "name": "SWC"
      }
    ],
    "url": "https://swang8.github.io/2019-01-24-tamu/",
    "venue": "Texas A&M University"
  },
  {
    "address": "Willis Library, Room 250H, 1506 Highland St., Denton, TX 76203",
    "country": "US",
    "end": "2019-01-25",
    "eventbrite_id": "54602259829",
    "humandate": "Jan 24 - 25, 2019",
    "latitude": 33.210068,
    "longitude": -97.148954,
    "slug": "2019-01-24-unt-swc",
    "start": "2019-01-24",
    "tags": [
      {
        "name": "SWC"
      }
    ],
    "url": "https://unt-carpentries.github.io/2019-01-24-unt-swc/",
    "venue": "University of North Texas"
  },
  {
    "address": "UCSB, Santa Barbara, CA 93106",
    "country": "US",
    "end": "2019-01-26",
    "eventbrite_id": "",
    "humandate": "Jan 25 - 26, 2019",
    "latitude": 34.414354,
    "longitude": -119.845506,
    "slug": "2019-01-25-UCSBLibrary",
    "start": "2019-01-25",
    "tags": [
      {
        "name": "SWC"
      }
    ],
    "url": "https://ucsbcarpentry.github.io/2019-01-25-UCSBLibrary/",
    "venue": "UCSB Library, classroom 1312"
  },
  {
    "address": "FIXME",
    "country": "US",
    "end": "2019-01-26",
    "eventbrite_id": "",
    "humandate": "Jan 25 - 26, 2019",
    "latitude": 47.66035,
    "longitude": -122.30001,
    "slug": "2019-01-25-uw",
    "start": "2019-01-25",
    "tags": [
      {
        "name": "SWC"
      }
    ],
    "url": "https://ca2783.github.io/2019-02-07-uw/",
    "venue": "Universty Of Washington"
  },
  {
    "address": "7 World Trade Center, 250 Greenwich St Fl 40, New York",
    "country": "US",
    "end": "2019-01-27",
    "eventbrite_id": "",
    "humandate": "Jan 26 - 27, 2019",
    "latitude": 40.766389,
    "longitude": -73.971111,
    "slug": "2019-01-26-nyas-R",
    "start": "2019-01-26",
    "tags": [
      {
        "name": "SWC"
      }
    ],
    "url": "https://matthewclark1223.github.io/2019-01-26-nyas-R/",
    "venue": "New York Academy of Sciences"
  },
  {
    "address": "TBD",
    "country": "US",
    "end": "2019-01-27",
    "eventbrite_id": "",
    "humandate": "Jan 26 - 27, 2019",
    "latitude": 39.904034,
    "longitude": -75.352318,
    "slug": "2019-01-26-swarthmore",
    "start": "2019-01-26",
    "tags": [
      {
        "name": "SWC"
      }
    ],
    "url": "https://timothylwarren.github.io/2019-01-26-swarthmore/",
    "venue": "Swarthmore College"
  },
  {
    "address": "TBC, Somaliland",
    "country": "SO",
    "end": "2019-01-29",
    "eventbrite_id": "",
    "humandate": "Jan 28 - 29, 2019",
    "latitude": 9.7231322,
    "longitude": 43.5502927,
    "slug": "2019-01-28-SomaliREN",
    "start": "2019-01-28",
    "tags": [
      {
        "name": "DC"
      }
    ],
    "url": "https://anelda.github.io/2019-01-28-SomaliREN/",
    "venue": "Somaliland"
  },
  {
    "address": "Room 516, Vivian Tower, Swansea University, Singleton Park, Swansea SA2 8PP",
    "country": "GB",
    "end": "2019-01-29",
    "eventbrite_id": "",
    "humandate": "Jan 28 - 29, 2019",
    "latitude": 51.609049,
    "longitude": -3.9825905,
    "slug": "2019-01-28-swansea",
    "start": "2019-01-28",
    "tags": [
      {
        "name": "SWC"
      }
    ],
    "url": "https://sa2c.github.io/swc-swansea-january-2019/",
    "venue": "Swansea University"
  },
  {
    "address": "3rd Floor, Collaborative Library, East London",
    "country": "ZA",
    "end": "2019-02-02",
    "eventbrite_id": "",
    "humandate": "Jan 31 - Feb 02, 2019",
    "latitude": -33.0211839,
    "longitude": 27.9058585,
    "slug": "2019-01-22-WSU-EastLondon",
    "start": "2019-01-31",
    "tags": [
      {
        "name": "DC"
      }
    ],
    "url": "https://tenet-rccpii.github.io/2019-01-22-WSU-EastLondon/",
    "venue": "Walter Sisulu University"
  },
  {
    "address": "607 Institute for Genomic Biology",
    "country": "US",
    "end": "2019-01-31",
    "eventbrite_id": "53442062648",
    "humandate": "Jan 31 - 31, 2019",
    "latitude": 40.1047754,
    "longitude": -88.2269122,
    "slug": "2019-01-31-dc-illinois",
    "start": "2019-01-31",
    "tags": [
      {
        "name": "DC"
      }
    ],
    "url": "https://swc-uiuc.github.io/2019-01-31-dc-illinois/",
    "venue": "University of Illinois"
  },
  {
    "address": "Edmon Low Library—Room 206, Stillwater, OK 74078",
    "country": "US",
    "end": "2019-02-22",
    "eventbrite_id": "54670284292",
    "humandate": "Feb 01 - 22, 2019",
    "latitude": 36.12297,
    "longitude": -97.069754,
    "slug": "2019-02-01-okstate",
    "start": "2019-02-01",
    "tags": [
      {
        "name": "DC"
      }
    ],
    "url": "https://osu-carpentry.github.io/2019-02-01-okstate/",
    "venue": "Oklahoma State University"
  },
  {
    "address": "1030 National Center for Supercomputing Applications",
    "country": "US",
    "end": "2019-02-08",
    "eventbrite_id": "53441740685",
    "humandate": "Feb 07 - 08, 2019",
    "latitude": 40.1149832,
    "longitude": -88.2271851,
    "slug": "2019-02-07-illinois",
    "start": "2019-02-07",
    "tags": [
      {
        "name": "SWC"
      }
    ],
    "url": "https://swc-uiuc.github.io/2019-02-07-illinois/",
    "venue": "University of Illinois"
  },
  {
    "address": "Seminarraum Y27-H-25, Irchel Campus, Winterthurerstrasse 190, 8057 Zürich",
    "country": "CH",
    "end": "2019-02-08",
    "eventbrite_id": "",
    "humandate": "Feb 07 - 08, 2019",
    "latitude": 47.3966,
    "longitude": 8.55013,
    "slug": "2019-02-07-zurich",
    "start": "2019-02-07",
    "tags": [
      {
        "name": "SWC"
      }
    ],
    "url": "https://uzhcrs.github.io/2019-02-07-zurich/",
    "venue": "University of Zurich"
  },
  {
    "address": "100 Woodruff Cir Suite 231, Rooms 110 and 120, Atlanta, GA 30322",
    "country": "US",
    "end": "2019-02-10",
    "eventbrite_id": "",
    "humandate": "Feb 09 - 10, 2019",
    "latitude": 33.79434,
    "longitude": -84.32145,
    "slug": "2019-02-09-emory",
    "start": "2019-02-09",
    "tags": [
      {
        "name": "SWC"
      }
    ],
    "url": "https://data-science-for-scientists-atl.github.io/2019-02-09-emory/",
    "venue": "Emory University"
  },
  {
    "address": "via Pietro Castellino 111, 80131 Naples",
    "country": "IT",
    "end": "2019-02-15",
    "eventbrite_id": "",
    "humandate": "Feb 11 - 15, 2019",
    "latitude": 40.855535,
    "longitude": 14.224429,
    "slug": "2019-02-11-Naples",
    "start": "2019-02-11",
    "tags": [
      {
        "name": "SWC"
      }
    ],
    "url": "https://mchiapello.github.io/2019-02-11-Naples/",
    "venue": "National Research Council"
  },
  {
    "address": "U7 building, Via Bicocca degli Arcimboldi, 8, Milano",
    "country": "IT",
    "end": "2019-02-15",
    "eventbrite_id": "",
    "humandate": "Feb 14 - 15, 2019",
    "latitude": 45.51729,
    "longitude": 9.21341,
    "slug": "2019-02-14-elixir-milano",
    "start": "2019-02-14",
    "tags": [
      {
        "name": "DC"
      }
    ],
    "url": "https://anacost.github.io/2019-02-14-elixir-milano/",
    "venue": "University Milano-Bicocca"
  },
  {
    "address": "1040 National Center for Supercomputing Applications",
    "country": "US",
    "end": "2019-02-15",
    "eventbrite_id": "53441690535",
    "humandate": "Feb 14 - 15, 2019",
    "latitude": 40.1149832,
    "longitude": -88.2271851,
    "slug": "2019-02-14-illinois",
    "start": "2019-02-14",
    "tags": [
      {
        "name": "SWC"
      }
    ],
    "url": "https://swc-uiuc.github.io/2019-02-14-illinois/",
    "venue": "University of Illinois"
  },
  {
    "address": "Plaza 600F, 1812 Sir Isaac Brock Way",
    "country": "CA",
    "end": "2019-02-22",
    "eventbrite_id": "54591271964",
    "humandate": "Feb 21 - 22, 2019",
    "latitude": 43.11721,
    "longitude": -79.24318,
    "slug": "2019-02-21-BrockU",
    "start": "2019-02-21",
    "tags": [
      {
        "name": "SWC"
      }
    ],
    "url": "https://brockdsl.github.io/2019-02-21-BrockU/",
    "venue": "Brock University"
  },
  {
    "address": "Room 302, Rock Hall (Mission Bay)",
    "country": "US",
    "end": "2019-03-01",
    "eventbrite_id": "",
    "humandate": "Feb 28 - Mar 01, 2019",
    "latitude": 37.769398,
    "longitude": -122.391498,
    "slug": "2019-02-28-UCSF",
    "start": "2019-02-28",
    "tags": [
      {
        "name": "SWC"
      }
    ],
    "url": "https://aseveritt.github.io/2019-02-28-UCSF/",
    "venue": "IND-UCSF"
  },
  {
    "address": "Norwich Research Park, Norwich, NR4 7UZ",
    "country": "GB",
    "end": "2019-03-06",
    "eventbrite_id": "",
    "humandate": "Mar 05 - 06, 2019",
    "latitude": 52.621741,
    "longitude": 1.218987,
    "slug": "2019-03-05-earlham",
    "start": "2019-03-05",
    "tags": [
      {
        "name": "DC"
      }
    ],
    "url": "https://tgac.github.io/2019-03-05-earlham/",
    "venue": "Earlham Institute"
  },
  {
    "address": "Langson Library RM 228",
    "country": "US",
    "end": "2019-03-27",
    "eventbrite_id": "54304950569",
    "humandate": "Mar 26 - 27, 2019",
    "latitude": 33.647111,
    "longitude": -117.8411,
    "slug": "2019-03-26-UCI",
    "start": "2019-03-26",
    "tags": [
      {
        "name": "SWC"
      }
    ],
    "url": "https://uci-libraries.github.io/2019-03-26-UCI/",
    "venue": "UC Irvine Libraries"
  },
  {
    "address": "Tisch Library, Room 302",
    "country": "US",
    "end": "2019-04-13",
    "eventbrite_id": "",
    "humandate": "Apr 12 - 13, 2019",
    "latitude": 42.406172,
    "longitude": -71.11884,
    "slug": "2019-04-12-tufts",
    "start": "2019-04-12",
    "tags": [
      {
        "name": "SWC"
      }
    ],
    "url": "https://nesclic.github.io/2019-04-12-tufts/",
    "venue": "Tufts University"
  },
  {
    "address": "U-residence Free University of Brussels, Generaal Jacqueslaan 271, 1050 Brussels",
    "country": "BE",
    "end": "2019-07-17",
    "eventbrite_id": "",
    "humandate": "Apr 16 - Jul 17, 2019",
    "latitude": 50.824343,
    "longitude": 4.394176,
    "slug": "2019-04-16-BRU",
    "start": "2019-04-16",
    "tags": [
      {
        "name": "SWC"
      }
    ],
    "url": "https://elixir-belgium.github.io/2019-04-16-BRU/",
    "venue": "ELIXIR-Belgium Brussels"
  },
  {
    "address": "Overwale 3, 9000 Gent. Clemenspoort: Zaal Neumann",
    "country": "BE",
    "end": "2019-05-14",
    "eventbrite_id": "",
    "humandate": "May 13 - 14, 2019",
    "latitude": 51.033718,
    "longitude": 3.70654,
    "slug": "2019-05-13-Ghent",
    "start": "2019-05-13",
    "tags": [
      {
        "name": "DC"
      }
    ],
    "url": "https://elixir-belgium.github.io/2019-05-13-Ghent/",
    "venue": "ELIXIR-BE"
  }
]
