[
  {
    "address": "206 Edmon Low Library",
    "country": "US",
    "end": "2018-11-30",
    "eventbrite_id": "51815645992",
    "humandate": "Nov 02 - 30, 2018",
    "latitude": 36.122953,
    "longitude": -97.069701,
    "slug": "2018-11-02-okstate-afternoon",
    "start": "2018-11-02",
    "tags": [
      {
        "name": "SWC"
      }
    ],
    "url": "https://osu-carpentry.github.io/2018-11-02-okstate-afternoon/",
    "venue": "Oklahoma State University"
  },
  {
    "address": "206 Edmon Low Library",
    "country": "US",
    "end": "2018-11-30",
    "eventbrite_id": "51782146795",
    "humandate": "Nov 02 - 30, 2018",
    "latitude": 36.122953,
    "longitude": -97.069701,
    "slug": "2018-11-02-okstate-morning",
    "start": "2018-11-02",
    "tags": [
      {
        "name": "SWC"
      }
    ],
    "url": "https://osu-carpentry.github.io/2018-11-02-okstate-morning/",
    "venue": "Oklahoma State University"
  },
  {
    "address": "University of Fort Hare, Alice Campus",
    "country": "ZA",
    "end": "2018-11-14",
    "eventbrite_id": "",
    "humandate": "Nov 12 - 14, 2018",
    "latitude": -32.7891356,
    "longitude": 26.7897755,
    "slug": "2018-11-12-UFH-Alice",
    "start": "2018-11-12",
    "tags": [
      {
        "name": "DC"
      }
    ],
    "url": "https://tenet-rccpii.github.io/2018-11-12-UFH-Alice/",
    "venue": "University of Fort Hare - Alice Campus"
  },
  {
    "address": "CAD Lab, School of Environmental Sciences, University of Venda, University Street",
    "country": "ZA",
    "end": "2018-11-15",
    "eventbrite_id": "",
    "humandate": "Nov 13 - 15, 2018",
    "latitude": -22.9761353,
    "longitude": 30.444291,
    "slug": "2018-11-13-UNIVEN",
    "start": "2018-11-13",
    "tags": [
      {
        "name": "DC"
      }
    ],
    "url": "https://tenet-rccpii.github.io/2018-11-13-UNIVEN/",
    "venue": "University of Venda"
  },
  {
    "address": "Room 009",
    "country": "GB",
    "end": "2018-11-13",
    "eventbrite_id": "",
    "humandate": "Nov 13 - 13, 2018",
    "latitude": 52.176783,
    "longitude": 0.135569,
    "slug": "2018-11-13-shell",
    "start": "2018-11-13",
    "tags": [
      {
        "name": "DC"
      }
    ],
    "url": "https://bioinformatics-core-shared-training.github.io/2018-11-13-shell/",
    "venue": "CRUK Cambridge Institute"
  },
  {
    "address": "Bell Room (room 103), 3600 Rue University, Montréal",
    "country": "CA",
    "end": "2018-11-21",
    "eventbrite_id": "50372379142",
    "humandate": "Nov 14 - 21, 2018",
    "latitude": 45.506864,
    "longitude": -73.578345,
    "slug": "2018-11-14-mcgill",
    "start": "2018-11-14",
    "tags": [
      {
        "name": "SWC"
      }
    ],
    "url": "https://computecanada.github.io/2018-11-14-mcgill/",
    "venue": "McGill University"
  },
  {
    "address": "Room 1H, Via Mesiano 77, 38123 Trento",
    "country": "IT",
    "end": "2018-11-15",
    "eventbrite_id": "",
    "humandate": "Nov 14 - 15, 2018",
    "latitude": 46.06703,
    "longitude": 11.13908,
    "slug": "2018-11-14-trento",
    "start": "2018-11-14",
    "tags": [
      {
        "name": "SWC"
      }
    ],
    "url": "https://mkcor.github.io/2018-11-14-trento/",
    "venue": "University of Trento"
  },
  {
    "address": "1510 E. University Blvd., Tucson, AZ, USA",
    "country": "US",
    "end": "2018-11-16",
    "eventbrite_id": "",
    "humandate": "Nov 15 - 16, 2018",
    "latitude": 32.231035,
    "longitude": -110.949291,
    "slug": "2018-11-15-ttt-cyverse",
    "start": "2018-11-15",
    "tags": [
      {
        "name": "TTT"
      }
    ],
    "url": "https://jcoliver.github.io/2018-11-15-ttt-cyverse/",
    "venue": "University of Arizona"
  },
  {
    "address": "Stopford Building, 99 Oxford Rd, Manchester M13 9PG",
    "country": "",
    "end": "2018-11-20",
    "eventbrite_id": "",
    "humandate": "Nov 19 - 20, 2018",
    "latitude": 53.4640904,
    "longitude": -2.2296408,
    "slug": "2018-11-19-manchester",
    "start": "2018-11-19",
    "tags": [
      {
        "name": "SWC"
      }
    ],
    "url": "https://anenadic.github.io/2018-11-19-manchester/",
    "venue": "University of Manchester"
  },
  {
    "address": "Bizzell Memorial Library, HCLC Classroom LL123, 401 W. Brooks St, Norman, OK 73019",
    "country": "US",
    "end": "2018-11-20",
    "eventbrite_id": "51666722558",
    "humandate": "Nov 19 - 20, 2018",
    "latitude": 35.208275,
    "longitude": -97.445848,
    "slug": "2018-11-19-ou-dc",
    "start": "2018-11-19",
    "tags": [
      {
        "name": "DC"
      }
    ],
    "url": "https://oulib-swc.github.io/2018-11-19-ou-dc/",
    "venue": "University of Oklahoma"
  },
  {
    "address": "Room 115&116, Ülikooli 17, Tartu",
    "country": "EE",
    "end": "2018-11-20",
    "eventbrite_id": "",
    "humandate": "Nov 19 - 20, 2018",
    "latitude": 59.432257,
    "longitude": 24.742271,
    "slug": "2018-11-19-tartu",
    "start": "2018-11-19",
    "tags": [
      {
        "name": "DC"
      }
    ],
    "url": "https://elixirestonia.github.io/2018-11-19-tartu/",
    "venue": "University of Tartu"
  },
  {
    "address": "Hodler, Rolex Learning Center, Campus de l'EPFL, 1015 Lausanne",
    "country": "",
    "end": "2018-11-29",
    "eventbrite_id": "",
    "humandate": "Nov 20 - 29, 2018",
    "latitude": 46.518304,
    "longitude": 6.568269,
    "slug": "2018-11-20-epfl",
    "start": "2018-11-20",
    "tags": [
      {
        "name": "SWC"
      }
    ],
    "url": "https://epfllibrary.github.io/2018-11-20-epfl/",
    "venue": "EPFL Library - Ecole Polytechnique Fédérale de Lausanne"
  },
  {
    "address": "Pam Liversidge Building, Design Studio 1, D06, Corner of Broad Lane and Newcastle Street, Sheffield S1 3JD",
    "country": "GB",
    "end": "2018-11-27",
    "eventbrite_id": "",
    "humandate": "Nov 26 - 27, 2018",
    "latitude": 53.382624,
    "longitude": -1.477762,
    "slug": "2018-11-26-sheffield",
    "start": "2018-11-26",
    "tags": [
      {
        "name": "SWC"
      }
    ],
    "url": "http://sbc.shef.ac.uk/2018-11-26-sheffield/",
    "venue": "University of Sheffield"
  },
  {
    "address": "Classroom 4, Biomedical Library Building, 9500 Gilman Dr., La Jolla, CA 92093",
    "country": "",
    "end": "2018-11-28",
    "eventbrite_id": "51557953226",
    "humandate": "Nov 27 - 28, 2018",
    "latitude": 32.875527,
    "longitude": -117.237224,
    "slug": "2018-11-27-UCSD",
    "start": "2018-11-27",
    "tags": [
      {
        "name": "SWC"
      }
    ],
    "url": "https://ucsdlib.github.io/2018-11-27-UCSD/",
    "venue": "UC San Diego Library"
  },
  {
    "address": "Parliament Hall, University of St Andrews, St Mary's College, St Andrews, KY16 9JU",
    "country": "GB",
    "end": "2018-11-28",
    "eventbrite_id": "",
    "humandate": "Nov 27 - 28, 2018",
    "latitude": 56.339324,
    "longitude": -2.793983,
    "slug": "2018-11-27-standrews",
    "start": "2018-11-27",
    "tags": [
      {
        "name": "SWC"
      }
    ],
    "url": "https://starescomp.github.io/2018-11-27-standrews/",
    "venue": "University of St Andrews"
  },
  {
    "address": "Nicolas Cabrera 13, Madrid, Spain",
    "country": "ES",
    "end": "2018-11-29",
    "eventbrite_id": "48796912880",
    "humandate": "Nov 28 - 29, 2018",
    "latitude": 40.549532,
    "longitude": -3.687608,
    "slug": "2018-11-28-cftmat",
    "start": "2018-11-28",
    "tags": [
      {
        "name": "SWC"
      }
    ],
    "url": "https://adgdt.github.io/2018-11-28-cftmat/",
    "venue": "Centro de Física Teórica y Matemáticas"
  },
  {
    "address": "Langson Library RM 570",
    "country": "US",
    "end": "2018-11-29",
    "eventbrite_id": "50242892845",
    "humandate": "Nov 28 - 29, 2018",
    "latitude": 33.647111,
    "longitude": -117.8411,
    "slug": "2018-11-28-ucirvine",
    "start": "2018-11-28",
    "tags": [
      {
        "name": "SWC"
      }
    ],
    "url": "https://uci-libraries.github.io/2018-11-28-UCI/",
    "venue": "UC Irvine Libraries"
  },
  {
    "address": "LSC 200 (15 Dewey Field Rd, Hanover, NH 03755)",
    "country": "US",
    "end": "2018-11-30",
    "eventbrite_id": "",
    "humandate": "Nov 29 - 30, 2018",
    "latitude": 43.70903,
    "longitude": -72.2839,
    "slug": "2018-11-29-dartmouth",
    "start": "2018-11-29",
    "tags": [
      {
        "name": "SWC"
      }
    ],
    "url": "https://nesclic.github.io/2018-11-29-dartmouth/",
    "venue": "Dartmouth College"
  },
  {
    "address": "Gladys Valley Hall, Room 2030, Davis, California 95616",
    "country": "US",
    "end": "2018-11-30",
    "eventbrite_id": "",
    "humandate": "Nov 29 - 30, 2018",
    "latitude": 38.532812,
    "longitude": -121.763881,
    "slug": "2018-11-29-davis-geospatial",
    "start": "2018-11-29",
    "tags": [
      {
        "name": "DC"
      }
    ],
    "url": "https://mikoontz.github.io/2018-11-29-davis-geospatial/",
    "venue": "University of California, Davis"
  },
  {
    "address": "Universidad Nacional de Quilmes",
    "country": "AR",
    "end": "2018-12-07",
    "eventbrite_id": "",
    "humandate": "Dec 05 - 07, 2018",
    "latitude": 6.26282,
    "longitude": -75.576103,
    "slug": "2018-12-05-quilmes",
    "start": "2018-12-05",
    "tags": [
      {
        "name": "SWC"
      }
    ],
    "url": "https://malvikasharan.github.io/2018-12-05-quilmes/",
    "venue": "Computational Skills for Life Scientists, Universidad Nacional de Quilmes"
  },
  {
    "address": "Internet",
    "country": "W3",
    "end": "2018-12-07",
    "eventbrite_id": "",
    "humandate": "Dec 06 - 07, 2018",
    "latitude": -48.876667,
    "longitude": -123.393333,
    "slug": "2018-11-29-ttt-online",
    "start": "2018-12-06",
    "tags": [
      {
        "name": "TTT"
      },
      {
        "name": "online"
      }
    ],
    "url": "https://allegravia.github.io/2018-11-29-ttt-online/",
    "venue": "Internet"
  },
  {
    "address": "New Law Building Learning Studio 030, University of Sydney Camperdown Campus, NSW 2050",
    "country": "AU",
    "end": "2018-12-11",
    "eventbrite_id": "51950887503",
    "humandate": "Dec 10 - 11, 2018",
    "latitude": -33.887563,
    "longitude": 151.190263,
    "slug": "2018-12-10-USyd",
    "start": "2018-12-10",
    "tags": [
      {
        "name": "DC"
      }
    ],
    "url": "https://sydney-informatics-hub.github.io/2018_12_10_GISworkshop/",
    "venue": "University of Sydney"
  },
  {
    "address": "Gleueler Straße 60, 50931 Köln",
    "country": "DE",
    "end": "2018-12-13",
    "eventbrite_id": "",
    "humandate": "Dec 12 - 13, 2018",
    "latitude": 50.924681,
    "longitude": 50.924681,
    "slug": "2018-12-12-Library_Carpentry_Cologne",
    "start": "2018-12-12",
    "tags": [
      {
        "name": "LC"
      }
    ],
    "url": "https://zbmed.github.io/2018-12-12-Library_Carpentry_Cologne/",
    "venue": "ZB MED"
  },
  {
    "address": "George Mason University Libraries, 1014 A & B Fenwick Library, 4400 University Dr, Fairfax, VA 22030",
    "country": "US",
    "end": "2018-12-14",
    "eventbrite_id": "",
    "humandate": "Dec 13 - 14, 2018",
    "latitude": 38.832139,
    "longitude": -77.3093677,
    "slug": "2018-12-13-GMU",
    "start": "2018-12-13",
    "tags": [
      {
        "name": "LC"
      }
    ],
    "url": "https://libcce.github.io/2018-12-13-GMU/",
    "venue": "George Mason University Libraries"
  },
  {
    "address": "4 Soranou Ephessiou St., 115 27 Athens, Greece",
    "country": "GR",
    "end": "2019-01-11",
    "eventbrite_id": "52153548668",
    "humandate": "Jan 10 - 11, 2019",
    "latitude": 37.991431,
    "longitude": 23.780932,
    "slug": "2019-01-10-elixir-athens",
    "start": "2019-01-10",
    "tags": [
      {
        "name": "SWC"
      }
    ],
    "url": "https://fpsom.github.io/2019-01-10-elixir-athens/",
    "venue": "BRFAA - Biomedical Research Foundation Academy of Athens"
  },
  {
    "address": "Room 107, Mathewson-IGT Knowledge Center, 1664 North Virginia St, Reno",
    "country": "US",
    "end": "2019-01-16",
    "eventbrite_id": "",
    "humandate": "Jan 15 - 16, 2019",
    "latitude": 39.57427,
    "longitude": -119.82982,
    "slug": "2018-01-15-reno",
    "start": "2019-01-15",
    "tags": [
      {
        "name": "DC"
      }
    ],
    "url": "https://sateeshperi.github.io/2019-01-15-reno/",
    "venue": "University of Nevada, Reno"
  },
  {
    "address": "Norwich Research Park, Norwich, NR4 7UZ",
    "country": "GB",
    "end": "2019-01-23",
    "eventbrite_id": "",
    "humandate": "Jan 22 - 23, 2019",
    "latitude": 52.621741,
    "longitude": 1.218987,
    "slug": "2019-01-23-SWC",
    "start": "2019-01-22",
    "tags": [
      {
        "name": "SWC"
      }
    ],
    "url": "https://tgac.github.io/2019-01-23-SWC/",
    "venue": "Earlham Institute"
  }
]
