[
  {
    "address": "Dean's Office, International Training Coordination Center, Nagyerdei krt. 98, H-4032 Debrecen, Hungary",
    "country": "HU",
    "end": "2018-12-02",
    "eventbrite_id": "51195018679",
    "humandate": "Dec 01 - 02, 2018",
    "latitude": 47.53986,
    "longitude": 21.63517,
    "slug": "2018-12-01-elixir-debrecen",
    "start": "2018-12-01",
    "tags": [
      {
        "name": "SWC"
      }
    ],
    "url": "https://fpsom.github.io/2018-12-01-elixir-debrecen/",
    "venue": "University of Debrecen, Medical Faculty"
  },
  {
    "address": "RE220, 711 W 40th St, Baltimore, MD 21211",
    "country": "US",
    "end": "2018-12-04",
    "eventbrite_id": "",
    "humandate": "Dec 03 - 04, 2018",
    "latitude": 39.336979,
    "longitude": -76.630592,
    "slug": "2018-12-03-STSCI",
    "start": "2018-12-03",
    "tags": [
      {
        "name": "SWC"
      }
    ],
    "url": "https://dpnemergut.github.io/2018-12-03-STSCI/",
    "venue": "Space Telescope Science Institute"
  },
  {
    "address": "Walter Library, 117 Pleasant St. SE, Room 101, Minneapolis, MN 55455",
    "country": "US",
    "end": "2018-12-04",
    "eventbrite_id": "51669978296",
    "humandate": "Dec 03 - 04, 2018",
    "latitude": 44.97532,
    "longitude": -93.236408,
    "slug": "2018-12-03-umn",
    "start": "2018-12-03",
    "tags": [
      {
        "name": "SWC"
      }
    ],
    "url": "https://matthewclark1223.github.io/2018-12-03-umn/",
    "venue": "University of Minnesota, Minneapolis"
  },
  {
    "address": "Department of IT, B Block, 1st Floor, Ritson Campus, Durban University of Technology",
    "country": "ZA",
    "end": "2018-12-06",
    "eventbrite_id": "",
    "humandate": "Dec 04 - 06, 2018",
    "latitude": -29.8536081,
    "longitude": 31.0039191,
    "slug": "2018-12-04-DUT-DC",
    "start": "2018-12-04",
    "tags": [
      {
        "name": "DC"
      }
    ],
    "url": "https://tenet-rccpii.github.io/2018-12-04-DUT-DC/",
    "venue": "Durban University of Technology"
  },
  {
    "address": "Department of IT, B Block, 1st Floor, Ritson Campus, Durban University of Technology",
    "country": "ZA",
    "end": "2018-12-06",
    "eventbrite_id": "",
    "humandate": "Dec 04 - 06, 2018",
    "latitude": -29.8536081,
    "longitude": 31.0039191,
    "slug": "2018-12-04-DUT-SWC",
    "start": "2018-12-04",
    "tags": [
      {
        "name": "SWC"
      }
    ],
    "url": "https://tenet-rccpii.github.io/2018-12-04-DUT-SWC/",
    "venue": "Durban University of Technology"
  },
  {
    "address": "Seminar Room, H-Block (Physics), Westville Campus",
    "country": "ZA",
    "end": "2018-12-05",
    "eventbrite_id": "",
    "humandate": "Dec 04 - 05, 2018",
    "latitude": -29.817262,
    "longitude": 30.943994,
    "slug": "2018-12-04-UKZN-SWC",
    "start": "2018-12-04",
    "tags": [
      {
        "name": "SWC"
      }
    ],
    "url": "https://workshops-ukzn.github.io/2018-12-04-UKZN-SWC/",
    "venue": "UKZN, Westville Campus"
  },
  {
    "address": "CFM Computer Room SSB-008A, basement floor",
    "country": "ES",
    "end": "2018-12-20",
    "eventbrite_id": "",
    "humandate": "Dec 05 - 20, 2018",
    "latitude": 43.305667,
    "longitude": -2.009502,
    "slug": "2018-12-05-cfm",
    "start": "2018-12-05",
    "tags": [
      {
        "name": "SWC"
      }
    ],
    "url": "https://scw-ss.github.io/2018-12-05-cfm/",
    "venue": "Centro de Física de Materiales (CSIC-UPV/EHU)"
  },
  {
    "address": "Universidad Nacional de Quilmes",
    "country": "AR",
    "end": "2018-12-07",
    "eventbrite_id": "",
    "humandate": "Dec 05 - 07, 2018",
    "latitude": 6.26282,
    "longitude": -75.576103,
    "slug": "2018-12-05-quilmes",
    "start": "2018-12-05",
    "tags": [
      {
        "name": "SWC"
      }
    ],
    "url": "https://malvikasharan.github.io/2018-12-05-quilmes/",
    "venue": "Computational Skills for Life Scientists, Universidad Nacional de Quilmes"
  },
  {
    "address": "Internet",
    "country": "W3",
    "end": "2018-12-07",
    "eventbrite_id": "",
    "humandate": "Dec 06 - 07, 2018",
    "latitude": -48.876667,
    "longitude": -123.393333,
    "slug": "2018-11-29-ttt-online",
    "start": "2018-12-06",
    "tags": [
      {
        "name": "TTT"
      },
      {
        "name": "online"
      }
    ],
    "url": "https://allegravia.github.io/2018-11-29-ttt-online/",
    "venue": "Internet"
  },
  {
    "address": "New Law Building Learning Studio 030, University of Sydney Camperdown Campus, NSW 2050",
    "country": "AU",
    "end": "2018-12-11",
    "eventbrite_id": "51950887503",
    "humandate": "Dec 10 - 11, 2018",
    "latitude": -33.887563,
    "longitude": 151.190263,
    "slug": "2018-12-10-USyd",
    "start": "2018-12-10",
    "tags": [
      {
        "name": "DC"
      }
    ],
    "url": "https://sydney-informatics-hub.github.io/2018_12_10_GISworkshop/",
    "venue": "University of Sydney"
  },
  {
    "address": "Gleueler Straße 60, 50931 Köln",
    "country": "DE",
    "end": "2018-12-13",
    "eventbrite_id": "",
    "humandate": "Dec 12 - 13, 2018",
    "latitude": 50.924681,
    "longitude": 50.924681,
    "slug": "2018-12-12-Library_Carpentry_Cologne",
    "start": "2018-12-12",
    "tags": [
      {
        "name": "LC"
      }
    ],
    "url": "https://zbmed.github.io/2018-12-12-Library_Carpentry_Cologne/",
    "venue": "ZB MED"
  },
  {
    "address": "George Mason University Libraries, 1014 A & B Fenwick Library, 4400 University Dr, Fairfax, VA 22030",
    "country": "US",
    "end": "2018-12-14",
    "eventbrite_id": "",
    "humandate": "Dec 13 - 14, 2018",
    "latitude": 38.832139,
    "longitude": -77.3093677,
    "slug": "2018-12-13-GMU",
    "start": "2018-12-13",
    "tags": [
      {
        "name": "LC"
      }
    ],
    "url": "https://libcce.github.io/2018-12-13-GMU/",
    "venue": "George Mason University Libraries"
  },
  {
    "address": "2710 Med Sci II, 1137 Catherine Street, Ann Arbor, MI",
    "country": "US",
    "end": "2018-12-18",
    "eventbrite_id": "",
    "humandate": "Dec 17 - 18, 2018",
    "latitude": 42.283312,
    "longitude": -83.734801,
    "slug": "2018-12-17-umich",
    "start": "2018-12-17",
    "tags": [
      {
        "name": "SWC"
      }
    ],
    "url": "https://umswc.github.io/2018-12-17-umich/",
    "venue": "University of Michigan"
  },
  {
    "address": "Peter Kiewit Institute - Room 158, 1110 S 67th St, Omaha, NE 68182",
    "country": "US",
    "end": "2019-01-04",
    "eventbrite_id": "",
    "humandate": "Jan 03 - 04, 2019",
    "latitude": 41.247015,
    "longitude": -96.016604,
    "slug": "2019-01-03-UNO",
    "start": "2019-01-03",
    "tags": [
      {
        "name": "DC"
      }
    ],
    "url": "https://unlhcc.github.io/2019-01-03-UNO/",
    "venue": "University of Nebraska at Omaha"
  },
  {
    "address": "Business and Aerospace Building (S316 and S326), 1642 MTSU Blvd, Murfreesboro, TN",
    "country": "US",
    "end": "2019-01-09",
    "eventbrite_id": "",
    "humandate": "Jan 07 - 09, 2019",
    "latitude": 35.8480208,
    "longitude": -86.3654459,
    "slug": "2019-01-07-mtsu",
    "start": "2019-01-07",
    "tags": [
      {
        "name": "LC"
      }
    ],
    "url": "https://libcce.github.io/2019-01-07-MTSU/",
    "venue": "MTSU (Business & Aerospace Building)"
  },
  {
    "address": "Du Bois Library, 154 Hicks Way, Amherst, MA 01003",
    "country": "US",
    "end": "2019-01-09",
    "eventbrite_id": "",
    "humandate": "Jan 08 - 09, 2019",
    "latitude": 42.389813,
    "longitude": -72.52825,
    "slug": "2019-01-08-umass",
    "start": "2019-01-08",
    "tags": [
      {
        "name": "SWC"
      }
    ],
    "url": "https://nesclic.github.io/2019-01-08-umass/",
    "venue": "University of Massachusetts Amherst"
  },
  {
    "address": "4 Soranou Ephessiou St., 115 27 Athens, Greece",
    "country": "GR",
    "end": "2019-01-11",
    "eventbrite_id": "52153548668",
    "humandate": "Jan 10 - 11, 2019",
    "latitude": 37.991431,
    "longitude": 23.780932,
    "slug": "2019-01-10-elixir-athens",
    "start": "2019-01-10",
    "tags": [
      {
        "name": "SWC"
      }
    ],
    "url": "https://fpsom.github.io/2019-01-10-elixir-athens/",
    "venue": "BRFAA - Biomedical Research Foundation Academy of Athens"
  },
  {
    "address": "Orchard Room, Discovery Building, 330 N. Orchard St., Madison, WI, 53715",
    "country": "US",
    "end": "2019-01-15",
    "eventbrite_id": "",
    "humandate": "Jan 14 - 15, 2019",
    "latitude": 43.0729163,
    "longitude": -89.410268,
    "slug": "2019-01-14-uwmadison-swc",
    "start": "2019-01-14",
    "tags": [
      {
        "name": "SWC"
      }
    ],
    "url": "https://uw-madison-datascience.github.io/2019-01-14-uwmadison-swc/",
    "venue": "Software Carpentry @ UW Madison"
  },
  {
    "address": "Room 107, Mathewson-IGT Knowledge Center, 1664 North Virginia St, Reno",
    "country": "US",
    "end": "2019-01-16",
    "eventbrite_id": "",
    "humandate": "Jan 15 - 16, 2019",
    "latitude": 39.57427,
    "longitude": -119.82982,
    "slug": "2018-01-15-reno",
    "start": "2019-01-15",
    "tags": [
      {
        "name": "DC"
      }
    ],
    "url": "https://sateeshperi.github.io/2019-01-15-reno/",
    "venue": "University of Nevada, Reno"
  },
  {
    "address": "Orchard Room, Discovery Building, 330 N. Orchard St., Madison, WI, 53715",
    "country": "US",
    "end": "2019-01-17",
    "eventbrite_id": "",
    "humandate": "Jan 16 - 17, 2019",
    "latitude": 43.0729163,
    "longitude": -89.410268,
    "slug": "2019-01-16-uwmadison-dc",
    "start": "2019-01-16",
    "tags": [
      {
        "name": "SWC"
      }
    ],
    "url": "https://uw-madison-datascience.github.io/2019-01-16-uwmadison-dc/",
    "venue": "Data Carpentry @ UW Madison"
  },
  {
    "address": "Room 2110, University Hall, 100 Morrissey Blvd, Boston, MA",
    "country": "US",
    "end": "2019-01-23",
    "eventbrite_id": "52371395253",
    "humandate": "Jan 22 - 23, 2019",
    "latitude": 42.31326,
    "longitude": -71.035406,
    "slug": "2019-01-22-umb",
    "start": "2019-01-22",
    "tags": [
      {
        "name": "DC"
      }
    ],
    "url": "https://jebyrnes.github.io/2019-01-22-UMB/",
    "venue": "University of Massachusetts Boston"
  },
  {
    "address": "Norwich Research Park, Norwich, NR4 7UZ",
    "country": "GB",
    "end": "2019-01-23",
    "eventbrite_id": "",
    "humandate": "Jan 22 - 23, 2019",
    "latitude": 52.621741,
    "longitude": 1.218987,
    "slug": "2019-01-23-SWC",
    "start": "2019-01-22",
    "tags": [
      {
        "name": "SWC"
      }
    ],
    "url": "https://tgac.github.io/2019-01-23-SWC/",
    "venue": "Earlham Institute"
  },
  {
    "address": "Seminarraum Y27-H-25, Irchel Campus, Winterthurerstrasse 190, 8057 Zürich",
    "country": "CH",
    "end": "2019-02-08",
    "eventbrite_id": "",
    "humandate": "Feb 07 - 08, 2019",
    "latitude": 47.3966,
    "longitude": 8.55013,
    "slug": "2019-02-07-zurich",
    "start": "2019-02-07",
    "tags": [
      {
        "name": "SWC"
      }
    ],
    "url": "https://uzhcrs.github.io/2019-02-07-zurich/",
    "venue": "University of Zurich"
  }
]
