[
  {
    "address": "CFM Computer Room SSB-008A, basement floor",
    "country": "ES",
    "end": "2018-12-20",
    "eventbrite_id": "",
    "humandate": "Dec 05 - 20, 2018",
    "latitude": 43.305667,
    "longitude": -2.009502,
    "slug": "2018-12-05-cfm",
    "start": "2018-12-05",
    "tags": [
      {
        "name": "SWC"
      }
    ],
    "url": "https://scw-ss.github.io/2018-12-05-cfm/",
    "venue": "Centro de Física de Materiales (CSIC-UPV/EHU)"
  },
  {
    "address": "New Law Building Learning Studio 030, University of Sydney Camperdown Campus, NSW 2050",
    "country": "AU",
    "end": "2018-12-11",
    "eventbrite_id": "51950887503",
    "humandate": "Dec 10 - 11, 2018",
    "latitude": -33.887563,
    "longitude": 151.190263,
    "slug": "2018-12-10-USyd",
    "start": "2018-12-10",
    "tags": [
      {
        "name": "DC"
      }
    ],
    "url": "https://sydney-informatics-hub.github.io/2018_12_10_GISworkshop/",
    "venue": "University of Sydney"
  },
  {
    "address": "School of Medicine, University of St Andrews, North Haugh, St Andrews, Fife, KY16 9TF. Scotland UK",
    "country": "GB",
    "end": "2018-12-11",
    "eventbrite_id": "52254244853",
    "humandate": "Dec 10 - 11, 2018",
    "latitude": 56.339324,
    "longitude": -2.793983,
    "slug": "2018-12-10-standrews",
    "start": "2018-12-10",
    "tags": [
      {
        "name": "SWC"
      }
    ],
    "url": "https://starescomp.github.io/2018-12-10-standrews/",
    "venue": "University of St Andrews"
  },
  {
    "address": "Gleueler Straße 60, 50931 Köln",
    "country": "DE",
    "end": "2018-12-13",
    "eventbrite_id": "",
    "humandate": "Dec 12 - 13, 2018",
    "latitude": 50.924681,
    "longitude": 50.924681,
    "slug": "2018-12-12-Library_Carpentry_Cologne",
    "start": "2018-12-12",
    "tags": [
      {
        "name": "LC"
      }
    ],
    "url": "https://zbmed.github.io/2018-12-12-Library_Carpentry_Cologne/",
    "venue": "ZB MED"
  },
  {
    "address": "George Mason University Libraries, 1014 A & B Fenwick Library, 4400 University Dr, Fairfax, VA 22030",
    "country": "US",
    "end": "2018-12-14",
    "eventbrite_id": "",
    "humandate": "Dec 13 - 14, 2018",
    "latitude": 38.832139,
    "longitude": -77.3093677,
    "slug": "2018-12-13-GMU",
    "start": "2018-12-13",
    "tags": [
      {
        "name": "LC"
      }
    ],
    "url": "https://libcce.github.io/2018-12-13-GMU/",
    "venue": "George Mason University Libraries"
  },
  {
    "address": "Murray Learning Centre - UG10",
    "country": "GB",
    "end": "2018-12-18",
    "eventbrite_id": "",
    "humandate": "Dec 17 - 18, 2018",
    "latitude": 52.450693,
    "longitude": -1.935646,
    "slug": "2018-12-17-bham",
    "start": "2018-12-17",
    "tags": [
      {
        "name": "SWC"
      }
    ],
    "url": "https://bham-carpentries.github.io/2018-12-17-bham/",
    "venue": "University of Birmingham"
  },
  {
    "address": "206 Edmon Low Library",
    "country": "US",
    "end": "2018-12-18",
    "eventbrite_id": "53147228792",
    "humandate": "Dec 17 - 18, 2018",
    "latitude": 36.122953,
    "longitude": -97.069701,
    "slug": "2018-12-17-okstate",
    "start": "2018-12-17",
    "tags": [
      {
        "name": "DC"
      }
    ],
    "url": "https://osu-carpentry.github.io/2018-12-17-okstate/",
    "venue": "Oklahoma State University"
  },
  {
    "address": "2710 Med Sci II, 1137 Catherine Street, Ann Arbor, MI",
    "country": "US",
    "end": "2018-12-18",
    "eventbrite_id": "",
    "humandate": "Dec 17 - 18, 2018",
    "latitude": 42.283312,
    "longitude": -83.734801,
    "slug": "2018-12-17-umich",
    "start": "2018-12-17",
    "tags": [
      {
        "name": "SWC"
      }
    ],
    "url": "https://umswc.github.io/2018-12-17-umich/",
    "venue": "University of Michigan"
  },
  {
    "address": "204 Washtenaw Ave, Ann Arbor, MI 48109",
    "country": "US",
    "end": "2018-12-18",
    "eventbrite_id": "",
    "humandate": "Dec 17 - 18, 2018",
    "latitude": 42.277102,
    "longitude": -83.733373,
    "slug": "2019-01-07-umich-wise",
    "start": "2018-12-17",
    "tags": [
      {
        "name": "SWC"
      }
    ],
    "url": "https://umswc.github.io/2019-01-07-umich-wise/",
    "venue": "University of Michigan"
  },
  {
    "address": "Bizzell Memorial Library, HCLC Classroom LL123, 401 W. Brooks St, Norman, OK 73019",
    "country": "US",
    "end": "2018-12-20",
    "eventbrite_id": "53114200002",
    "humandate": "Dec 19 - 20, 2018",
    "latitude": 35.208275,
    "longitude": -97.445848,
    "slug": "2018-12-19-ou-swc",
    "start": "2018-12-19",
    "tags": [
      {
        "name": "SWC"
      }
    ],
    "url": "https://oulib-swc.github.io/2018-12-19-ou-swc/",
    "venue": "University of Oklahoma"
  },
  {
    "address": "Seminar Room, Faculty of Mathematical Sciences, Al-Gamaa Street, Khartoum",
    "country": "SD",
    "end": "2018-12-22",
    "eventbrite_id": "",
    "humandate": "Dec 21 - 22, 2018",
    "latitude": 15.609321,
    "longitude": 32.541405,
    "slug": "2018-12-21-khartoum",
    "start": "2018-12-21",
    "tags": [
      {
        "name": "DC"
      }
    ],
    "url": "https://elssam.github.io/2018-12-21-khartoum/",
    "venue": "University of Khartoum"
  },
  {
    "address": "Room 360, Shields Library, 100 North West Quad, Davis, CA 95616",
    "country": "US",
    "end": "2019-01-04",
    "eventbrite_id": "",
    "humandate": "Jan 03 - 04, 2019",
    "latitude": 38.539534,
    "longitude": -121.748514,
    "slug": "2019-01-03-Davis",
    "start": "2019-01-03",
    "tags": [
      {
        "name": "DC"
      }
    ],
    "url": "https://micheletobias.github.io/2019-01-03-Davis/",
    "venue": "UC Davis Library"
  },
  {
    "address": "Peter Kiewit Institute - Room 158, 1110 S 67th St, Omaha, NE 68182",
    "country": "US",
    "end": "2019-01-04",
    "eventbrite_id": "",
    "humandate": "Jan 03 - 04, 2019",
    "latitude": 41.247015,
    "longitude": -96.016604,
    "slug": "2019-01-03-UNO",
    "start": "2019-01-03",
    "tags": [
      {
        "name": "DC"
      }
    ],
    "url": "https://unlhcc.github.io/2019-01-03-UNO/",
    "venue": "University of Nebraska at Omaha"
  },
  {
    "address": "Business and Aerospace Building (S316 and S326), 1642 MTSU Blvd, Murfreesboro, TN",
    "country": "US",
    "end": "2019-01-09",
    "eventbrite_id": "",
    "humandate": "Jan 07 - 09, 2019",
    "latitude": 35.8480208,
    "longitude": -86.3654459,
    "slug": "2019-01-07-mtsu",
    "start": "2019-01-07",
    "tags": [
      {
        "name": "LC"
      }
    ],
    "url": "https://libcce.github.io/2019-01-07-MTSU/",
    "venue": "MTSU (Business & Aerospace Building)"
  },
  {
    "address": "Engineering Research Center ENRC 3211, 700 Research Center Blvd, Fayetteville, AR 72701",
    "country": "US",
    "end": "2019-01-08",
    "eventbrite_id": "",
    "humandate": "Jan 07 - 08, 2019",
    "latitude": 36.042345,
    "longitude": -94.168058,
    "slug": "2019-01-07-uark",
    "start": "2019-01-07",
    "tags": [
      {
        "name": "SWC"
      }
    ],
    "url": "https://software-carpentry-uark.github.io/2019-01-07-uark/",
    "venue": "Software Carpentry @ University of Arkansas"
  },
  {
    "address": "Du Bois Library, 154 Hicks Way, Amherst, MA 01003",
    "country": "US",
    "end": "2019-01-09",
    "eventbrite_id": "",
    "humandate": "Jan 08 - 09, 2019",
    "latitude": 42.389813,
    "longitude": -72.52825,
    "slug": "2019-01-08-umass",
    "start": "2019-01-08",
    "tags": [
      {
        "name": "SWC"
      }
    ],
    "url": "https://nesclic.github.io/2019-01-08-umass/",
    "venue": "University of Massachusetts Amherst"
  },
  {
    "address": "4 Soranou Ephessiou St., 115 27 Athens, Greece",
    "country": "GR",
    "end": "2019-01-11",
    "eventbrite_id": "52153548668",
    "humandate": "Jan 10 - 11, 2019",
    "latitude": 37.991431,
    "longitude": 23.780932,
    "slug": "2019-01-10-elixir-athens",
    "start": "2019-01-10",
    "tags": [
      {
        "name": "SWC"
      }
    ],
    "url": "https://fpsom.github.io/2019-01-10-elixir-athens/",
    "venue": "BRFAA - Biomedical Research Foundation Academy of Athens"
  },
  {
    "address": "Plantage Muidergracht 12, 1018 TV Amsterdam, Roetersstraat, 1012 WX Amsterdam, The Netherlands",
    "country": "NL",
    "end": "2019-01-15",
    "eventbrite_id": "51358690225",
    "humandate": "Jan 14 - 15, 2019",
    "latitude": 52.36349,
    "longitude": 4.91191,
    "slug": "2019-01-14-Amsterdam-Python-SWC",
    "start": "2019-01-14",
    "tags": [
      {
        "name": "SWC"
      }
    ],
    "url": "https://scienceparkstudygroup.github.io/2019-01-14-Amsterdam-Python-SWC/",
    "venue": "Computational skills for Life Scientists - Amsterdam"
  },
  {
    "address": "Orchard Room, Discovery Building, 330 N. Orchard St., Madison, WI, 53715",
    "country": "US",
    "end": "2019-01-15",
    "eventbrite_id": "",
    "humandate": "Jan 14 - 15, 2019",
    "latitude": 43.0729163,
    "longitude": -89.410268,
    "slug": "2019-01-14-uwmadison-swc",
    "start": "2019-01-14",
    "tags": [
      {
        "name": "SWC"
      }
    ],
    "url": "https://uw-madison-datascience.github.io/2019-01-14-uwmadison-swc/",
    "venue": "Software Carpentry @ UW Madison"
  },
  {
    "address": "Room 107, Mathewson-IGT Knowledge Center, 1664 North Virginia St, Reno",
    "country": "US",
    "end": "2019-01-16",
    "eventbrite_id": "",
    "humandate": "Jan 15 - 16, 2019",
    "latitude": 39.57427,
    "longitude": -119.82982,
    "slug": "2018-01-15-reno",
    "start": "2019-01-15",
    "tags": [
      {
        "name": "DC"
      }
    ],
    "url": "https://sateeshperi.github.io/2019-01-15-reno/",
    "venue": "University of Nevada, Reno"
  },
  {
    "address": "Room 240, Avedesian Hall,  College of Pharmacy, 7 Greenhouse Rd., Kingston RI 02881",
    "country": "US",
    "end": "2019-01-16",
    "eventbrite_id": "",
    "humandate": "Jan 15 - 16, 2019",
    "latitude": 41.48942,
    "longitude": -71.52748,
    "slug": "2019-01-15-uri",
    "start": "2019-01-15",
    "tags": [
      {
        "name": "DC"
      }
    ],
    "url": "https://rhodyrstats.github.io/2019-01-15-uri/",
    "venue": "University of Rhode Island"
  },
  {
    "address": "Orchard Room, Discovery Building, 330 N. Orchard St., Madison, WI, 53715",
    "country": "US",
    "end": "2019-01-17",
    "eventbrite_id": "",
    "humandate": "Jan 16 - 17, 2019",
    "latitude": 43.0729163,
    "longitude": -89.410268,
    "slug": "2019-01-16-uwmadison-dc",
    "start": "2019-01-16",
    "tags": [
      {
        "name": "SWC"
      }
    ],
    "url": "https://uw-madison-datascience.github.io/2019-01-16-uwmadison-dc/",
    "venue": "Data Carpentry @ UW Madison"
  },
  {
    "address": "Room 2110, University Hall, 100 Morrissey Blvd, Boston, MA",
    "country": "US",
    "end": "2019-01-23",
    "eventbrite_id": "52371395253",
    "humandate": "Jan 22 - 23, 2019",
    "latitude": 42.31326,
    "longitude": -71.035406,
    "slug": "2019-01-22-umb",
    "start": "2019-01-22",
    "tags": [
      {
        "name": "DC"
      }
    ],
    "url": "https://jebyrnes.github.io/2019-01-22-UMB/",
    "venue": "University of Massachusetts Boston"
  },
  {
    "address": "Norwich Research Park, Norwich, NR4 7UZ",
    "country": "GB",
    "end": "2019-01-23",
    "eventbrite_id": "",
    "humandate": "Jan 22 - 23, 2019",
    "latitude": 52.621741,
    "longitude": 1.218987,
    "slug": "2019-01-23-SWC",
    "start": "2019-01-22",
    "tags": [
      {
        "name": "SWC"
      }
    ],
    "url": "https://tgac.github.io/2019-01-23-SWC/",
    "venue": "Earlham Institute"
  },
  {
    "address": "Seminarraum Y27-H-25, Irchel Campus, Winterthurerstrasse 190, 8057 Zürich",
    "country": "CH",
    "end": "2019-02-08",
    "eventbrite_id": "",
    "humandate": "Feb 07 - 08, 2019",
    "latitude": 47.3966,
    "longitude": 8.55013,
    "slug": "2019-02-07-zurich",
    "start": "2019-02-07",
    "tags": [
      {
        "name": "SWC"
      }
    ],
    "url": "https://uzhcrs.github.io/2019-02-07-zurich/",
    "venue": "University of Zurich"
  },
  {
    "address": "CLSC, 119 E 57th St, Chicago, IL 60637",
    "country": "US",
    "end": "2019-09-21",
    "eventbrite_id": "",
    "humandate": "Sep 20 - 21, 2019",
    "latitude": 41.791836,
    "longitude": -87.602679,
    "slug": "2019-01-12-chicago",
    "start": "2019-09-20",
    "tags": [
      {
        "name": "SWC"
      }
    ],
    "url": "https://crerecombinase.github.io/2019-01-12-chicago/",
    "venue": "University of Chicago"
  }
]
