[
  {
    "end_date": "2019-02-17",
    "url": "https://mckays630.github.io/2019-02-16-stonybrook-Python/",
    "country": "US",
    "instructors": "Sheldon McKay,Michael Zingale",
    "venue": "Stony Brook University",
    "longitude": -73.121199,
    "slug": "2019-xx-xx-stonybrook-Python",
    "tag_name": "SWC",
    "helpers": null,
    "host_name": "Stony Brook University",
    "latitude": 40.909835,
    "start_date": "2019-02-16"
  },
  {
    "end_date": "2019-02-16",
    "url": "https://russodanielp.github.io/2019-02-15-rutgers_cmd/",
    "country": "US",
    "instructors": "Daniel Russo,Heather Ciallella,Liam Sharp,Sunil Shende",
    "venue": "Rutgers University - Camden",
    "longitude": -75.118828,
    "slug": "2019-02-15-rutgers_cmd",
    "tag_name": "SWC",
    "helpers": "James Brown,Traci DuBose,adam okulicz-kozaryn",
    "host_name": "Rutgers University - Camden",
    "latitude": 39.94521,
    "start_date": "2019-02-15"
  },
  {
    "end_date": "2019-02-15",
    "url": "https://swc-uiuc.github.io/2019-02-14-illinois/",
    "country": "US",
    "instructors": "Stuti Shrivastava",
    "venue": "University of Illinois",
    "longitude": -88.2271851,
    "slug": "2019-02-14-illinois",
    "tag_name": "SWC",
    "helpers": null,
    "host_name": "National Center for Supercomputing Applications, University of Illinois at Urbana–Champaign",
    "latitude": 40.1149832,
    "start_date": "2019-02-14"
  },
  {
    "end_date": "2019-02-13",
    "url": "https://bio-swc-bne.github.io/2019-02-12-GriffithUni-R/",
    "country": "AU",
    "instructors": "Amanda Miotto",
    "venue": "Griffith University",
    "longitude": 153.378868,
    "slug": "2019-02-12-GriffithUni-R",
    "tag_name": "SWC",
    "helpers": null,
    "host_name": "Griffith University",
    "latitude": -27.960345,
    "start_date": "2019-02-12"
  },
  {
    "end_date": "2019-02-15",
    "url": "https://mchiapello.github.io/2019-02-11-Naples/",
    "country": "IT",
    "instructors": "Wagner Barløse Mathias,Marco Chiapello",
    "venue": "National Research Council",
    "longitude": 14.224429,
    "slug": "2019-02-11-Naples",
    "tag_name": "SWC",
    "helpers": "Dario Righelli",
    "host_name": "ELIXIR-UK",
    "latitude": 40.855535,
    "start_date": "2019-02-11"
  },
  {
    "end_date": "2019-02-12",
    "url": "https://bsurc.github.io/2019-02-11-rc-days/",
    "country": "US",
    "instructors": "Eric Jankowski,Vicken Hillis,Eric Hayden,Brian Jackson,Mike Henry,Matthew Jones,Kyle Shannon",
    "venue": "Boise State University",
    "longitude": -116.209994,
    "slug": "2019-02-11-rc-days",
    "tag_name": "SWC",
    "helpers": "Matt Clark,Kendra Kaiser",
    "host_name": "Boise State University",
    "latitude": 43.604172,
    "start_date": "2019-02-11"
  },
  {
    "end_date": "2019-02-12",
    "url": "https://uf-carpentry.github.io/2019-02-11-ufii/",
    "country": "US",
    "instructors": "Brian Stucky,Ellen Bledsoe,Joe Andreoli,Sasha Lavrentovich",
    "venue": "UF Informatics Institute",
    "longitude": -82.344031,
    "slug": "2019-02-11-ufii",
    "tag_name": "SWC",
    "helpers": "Christine Swanson,Falcon Restrepo Ramos",
    "host_name": "University of Florida",
    "latitude": 29.648248,
    "start_date": "2019-02-11"
  },
  {
    "end_date": "2019-02-10",
    "url": "https://data-science-for-scientists-atl.github.io/2019-02-09-emory/",
    "country": "US",
    "instructors": "Elyse Morin,David Nicholson,Jay Lee,Sena Agezo",
    "venue": "Emory University",
    "longitude": -84.32145,
    "slug": "2019-02-09-emory",
    "tag_name": "SWC",
    "helpers": "Stephanie Prince,Kate Roman,Sara Fielder,Robert Thorstadt,Marko Bajic,Matt Malishev,Jessica Owensby",
    "host_name": "Emory University",
    "latitude": 33.79434,
    "start_date": "2019-02-09"
  },
  {
    "end_date": "2019-02-08",
    "url": "https://swang8.github.io/2019-01-24-tamu/",
    "country": "US",
    "instructors": "Noushin Ghaffari,David Bapst,Ramalingam Saravanan,Shichen Wang",
    "venue": "Texas A&M University",
    "longitude": -96.334404,
    "slug": "2019-01-24-tamu",
    "tag_name": "SWC",
    "helpers": "Jian Tao",
    "host_name": "Texas A&M University",
    "latitude": 30.627977,
    "start_date": "2019-02-07"
  },
  {
    "end_date": "2019-02-08",
    "url": "https://swc-uiuc.github.io/2019-02-07-illinois/",
    "country": "US",
    "instructors": "Madicken Munk,Lindsay Clark",
    "venue": "University of Illinois",
    "longitude": -88.2271851,
    "slug": "2019-02-07-illinois",
    "tag_name": "SWC",
    "helpers": null,
    "host_name": "National Center for Supercomputing Applications, University of Illinois at Urbana–Champaign",
    "latitude": 40.1149832,
    "start_date": "2019-02-07"
  },
  {
    "end_date": "2019-02-08",
    "url": "https://ca2783.github.io/2019-02-07-uw/",
    "country": "US",
    "instructors": "TJ Nguyen,Cesar Arias",
    "venue": "Universty Of Washington",
    "longitude": -122.30001,
    "slug": "2019-02-07-uw",
    "tag_name": "SWC",
    "helpers": "Jacob Deppen,Scott Henderson,Rob Fatland,Helen Deweese",
    "host_name": "University of Washington",
    "latitude": 47.66035,
    "start_date": "2019-02-07"
  },
  {
    "end_date": "2019-02-08",
    "url": "https://uzhcrs.github.io/2019-02-07-zurich/",
    "country": "CH",
    "instructors": "Lachlan Deer,Julian Langer",
    "venue": "University of Zurich",
    "longitude": 8.55013,
    "slug": "2019-02-07-zurich",
    "tag_name": "SWC",
    "helpers": null,
    "host_name": "University of Zurich",
    "latitude": 47.3966,
    "start_date": "2019-02-07"
  },
  {
    "end_date": "2019-02-01",
    "url": "https://butterflyology.github.io/2019-01-31-usc/",
    "country": "US",
    "instructors": "Joshua Steele,Chris Hamm",
    "venue": "University of Southern California",
    "longitude": -118.288799,
    "slug": "2019-01-31-usc",
    "tag_name": "SWC",
    "helpers": null,
    "host_name": "University of Southern California",
    "latitude": 34.019611,
    "start_date": "2019-01-31"
  },
  {
    "end_date": "2019-01-27",
    "url": "https://julesfowler.github.io/2019-01-26-nyas-Python/",
    "country": "US",
    "instructors": "Julia Fowler,Katie Moore,Jennifer Shelton",
    "venue": "The New York Academy of Sciences",
    "longitude": -66.37021,
    "slug": "2019-01-26-nyas-Python",
    "tag_name": "SWC",
    "helpers": "Esther Jackson,Karoline Dubin,Yamuna Devi Gangadharan ,Laura Yu",
    "host_name": "New York Academy of Sciences",
    "latitude": 45.25876,
    "start_date": "2019-01-26"
  },
  {
    "end_date": "2019-01-27",
    "url": "https://matthewclark1223.github.io/2019-01-26-nyas-R/",
    "country": "US",
    "instructors": "Casey Youngflesh,Matt Clark",
    "venue": "New York Academy of Sciences",
    "longitude": -73.971111,
    "slug": "2019-01-26-nyas-R",
    "tag_name": "SWC",
    "helpers": null,
    "host_name": "New York Academy of Sciences",
    "latitude": 40.766389,
    "start_date": "2019-01-26"
  },
  {
    "end_date": "2019-01-27",
    "url": "https://timothylwarren.github.io/2019-01-26-swarthmore/",
    "country": "US",
    "instructors": "Timothy Warren,Nihan Pol",
    "venue": "Swarthmore College",
    "longitude": -75.352318,
    "slug": "2019-01-26-swarthmore",
    "tag_name": "SWC",
    "helpers": "Paul Jacobs,Adam Light",
    "host_name": "Swarthmore College",
    "latitude": 39.904034,
    "start_date": "2019-01-26"
  },
  {
    "end_date": "2019-01-26",
    "url": "https://ucsbcarpentry.github.io/2019-01-25-UCSBLibrary/",
    "country": "US",
    "instructors": "Jon Jablonski,Ian Lessing,Greg Janée,Sharon Solis,Mary Donovan,Katja Seltmann,Yuan Wu",
    "venue": "UCSB Library, classroom 1312",
    "longitude": -119.845506,
    "slug": "2019-01-25-UCSBLibrary",
    "tag_name": "SWC",
    "helpers": null,
    "host_name": "University of California Santa Barbara",
    "latitude": 34.414354,
    "start_date": "2019-01-25"
  },
  {
    "end_date": "2019-01-25",
    "url": "https://unt-carpentries.github.io/2019-01-24-unt-swc/",
    "country": "US",
    "instructors": "Kristy Phillips,Mark Phillips,Maristella Feustle,Lauren Ko",
    "venue": "University of North Texas",
    "longitude": -97.148954,
    "slug": "2019-01-24-unt-swc",
    "tag_name": "SWC",
    "helpers": "Pamela Andrews,Madhulika Bayyavarapu,Manuel (Gio) Gottardi,Douglas Burns",
    "host_name": "University of North Texas",
    "latitude": 33.210068,
    "start_date": "2019-01-24"
  },
  {
    "end_date": "2019-01-24",
    "url": "https://cengel.github.io/2019-01-23-stanford/",
    "country": "US",
    "instructors": "Claudia Engel,Melissa Ko,Mary-Ellen Petrich",
    "venue": "Stanford University",
    "longitude": -122.172797,
    "slug": "2019-01-23-stanford",
    "tag_name": "SWC",
    "helpers": "John Borghi,Max Czapanskiy,Amy Hodge,Edgar Franco Vivanco",
    "host_name": "Stanford University",
    "latitude": 37.426478,
    "start_date": "2019-01-23"
  },
  {
    "end_date": "2019-01-25",
    "url": "https://fredhutchio.github.io/2019-01-22-fredhutch/",
    "country": "US",
    "instructors": "Kate Hertweck",
    "venue": "Fred Hutch",
    "longitude": -122.330025,
    "slug": "2019-01-22-fredhutch",
    "tag_name": "SWC",
    "helpers": "Michael Gutteridge,Dane Gellerup,John Huddleston,Zach Romer",
    "host_name": "Fred Hutchinson Cancer Research Center",
    "latitude": 47.628251,
    "start_date": "2019-01-22"
  },
  {
    "end_date": "2019-01-23",
    "url": "https://tgac.github.io/2019-01-23-earlham/",
    "country": "GB",
    "instructors": "Anthony Etuk,Alice Minotto,Nicola Soranzo",
    "venue": "Earlham Institute",
    "longitude": 1.218987,
    "slug": "2019-01-23-SWC",
    "tag_name": "SWC",
    "helpers": null,
    "host_name": "Earlham Institute",
    "latitude": 52.621741,
    "start_date": "2019-01-22"
  },
  {
    "end_date": "2019-01-21",
    "url": "https://crerecombinase.github.io/2019-01-12-chicago/",
    "country": "US",
    "instructors": "Nicholas Knoblauch,Arjun Biddanda,Briana Mittleman,Angela Li",
    "venue": "University of Chicago",
    "longitude": -87.602679,
    "slug": "2019-01-12-chicago",
    "tag_name": "SWC",
    "helpers": "Peter Carbonetto,Maryn Carlson,Ankeeta Shah,Zach Miller,Rahul Subramanian",
    "host_name": "University of Chicago",
    "latitude": 41.791836,
    "start_date": "2019-01-20"
  },
  {
    "end_date": "2019-01-18",
    "url": "https://columbiaswc.github.io/2019-01-17-Columbia-Section-1/",
    "country": "US",
    "instructors": "Cesar Arias,David Balducci,John Pellman",
    "venue": "Columbia University, Computing Fundamentals with Python - Section 1",
    "longitude": -73.963191,
    "slug": "2019-01-17-Columbia-Section-1",
    "tag_name": "SWC",
    "helpers": "Fatimazohra Koli,George Garrett,Jochen Weber",
    "host_name": "Columbia University",
    "latitude": 40.806367,
    "start_date": "2019-01-17"
  },
  {
    "end_date": "2019-01-18",
    "url": "https://columbiaswc.github.io/2019-01-17-Columbia-Section-2/",
    "country": "US",
    "instructors": "Brian Luna Lucero,Rob Lane,John Villa",
    "venue": "Columbia University, Computing Fundamentals with Python - Section 2",
    "longitude": -73.963191,
    "slug": "2019-01-17-Columbia-Section-2",
    "tag_name": "SWC",
    "helpers": "Jonathan Reeve,Kathryn Engelhardt,Oliver Bear",
    "host_name": "Columbia University",
    "latitude": 40.806367,
    "start_date": "2019-01-17"
  },
  {
    "end_date": "2019-01-18",
    "url": "https://columbiaswc.github.io/2019-01-17-Columbia-Section-3/",
    "country": "US",
    "instructors": "Mariel Nyrop,Teddy Thomas",
    "venue": "Columbia University, Computing Fundamentals with Python - Section 3",
    "longitude": -73.963191,
    "slug": "2019-01-17-Columbia-Section-3",
    "tag_name": "SWC",
    "helpers": "Parixit Davé,Rebecca Yohannes",
    "host_name": "Columbia University",
    "latitude": 40.806367,
    "start_date": "2019-01-17"
  },
  {
    "end_date": "2019-01-18",
    "url": "https://columbiaswc.github.io/2019-01-17-Columbia-Section-4/",
    "country": "US",
    "instructors": "Wei Yin,Satwinder Singh,Michael Weisner",
    "venue": "Columbia University, Computing Fundamentals with R (Section 4)",
    "longitude": -73.963191,
    "slug": "2019-01-17-Columbia-Section-4",
    "tag_name": "SWC",
    "helpers": "Shreyas Bhave,Thomas Barraro",
    "host_name": "Columbia University",
    "latitude": 40.806367,
    "start_date": "2019-01-17"
  },
  {
    "end_date": "2019-01-18",
    "url": "https://rkclement.github.io/2019-01-17-middlebury/",
    "country": "US",
    "instructors": "Easton White,Ryan Clement",
    "venue": "Middlebury College",
    "longitude": -73.177909,
    "slug": "2019-01-17-middlebury",
    "tag_name": "SWC",
    "helpers": null,
    "host_name": "Middlebury College",
    "latitude": 44.003645,
    "start_date": "2019-01-17"
  },
  {
    "end_date": "2019-01-18",
    "url": "https://elixirestonia.github.io/2019-01-17-tartu-NeIC/",
    "country": "EE",
    "instructors": "Dmytro Fishman,Liis Kolberg,Tiago Pereira",
    "venue": "University of Tartu",
    "longitude": -81.201653,
    "slug": "2019-01-17-tartu-NelC",
    "tag_name": "SWC",
    "helpers": "Priit Adler,Mikhail Papkov,Ivan Kuzmin,Uku Raudvere",
    "host_name": "University of Tartu",
    "latitude": 28.599171,
    "start_date": "2019-01-17"
  },
  {
    "end_date": "2019-01-17",
    "url": "https://kulibraries.github.io/2019-01-16-gpn/",
    "country": "US",
    "instructors": "Boryana Koseva,Jamene Brooks-Kieffer",
    "venue": "University of Kansas",
    "longitude": -95.246741,
    "slug": "2019-01-16-gpn",
    "tag_name": "SWC",
    "helpers": "Mark Holder,Miloche Kottman,Andrea Pitt,Greta Valentine,Neal Axton,Elizabeth Everman,Tom Hill,Micki Lubbers,Samantha Thomas,Aake Vaestermark,Erin Wolfe",
    "host_name": "University of Kansas",
    "latitude": 38.95487,
    "start_date": "2019-01-16"
  },
  {
    "end_date": "2019-01-17",
    "url": "https://uw-madison-datascience.github.io/2019-01-16-uwmadison-dc/",
    "country": "US",
    "instructors": "Trisha Adamus,Maria Kamenetsky,Christina Koch,Erin Jonaitis",
    "venue": "Data Carpentry @ UW Madison",
    "longitude": -89.410268,
    "slug": "2019-01-16-uwmadison-dc",
    "tag_name": "SWC",
    "helpers": "Patrick Shriwise,Sailendharan Sudakaran,Kim O'Keefe,Sarah Graves,Heather Shimon",
    "host_name": "University of Wisconsin - Madison",
    "latitude": 43.0729163,
    "start_date": "2019-01-16"
  },
  {
    "end_date": "2019-01-16",
    "url": "https://khojanator.github.io/2019-01-15-umn/",
    "country": "US",
    "instructors": "Hao Ye,Ahsan Ali Khoja",
    "venue": "University of Minnesota",
    "longitude": -93.243016,
    "slug": "2019-01-15-umn",
    "tag_name": "SWC",
    "helpers": "Nick Dunn,Katie Wilson,Chaochih Liu,Tim Hendrickson",
    "host_name": "University of Minnesota",
    "latitude": 44.973167,
    "start_date": "2019-01-15"
  },
  {
    "end_date": "2019-01-15",
    "url": "https://scienceparkstudygroup.github.io/2019-01-14-Amsterdam-Python-SWC/",
    "country": "NL",
    "instructors": "Like Fokkens,Marc Galland,Pietro Marchesi",
    "venue": "Computational skills for Life Scientists - Amsterdam",
    "longitude": 4.91191,
    "slug": "2019-01-14-Amsterdam-Python-SWC",
    "tag_name": "SWC",
    "helpers": "Caspar Treijtel,Carlos Martinez",
    "host_name": "University of Amsterdam",
    "latitude": 52.36349,
    "start_date": "2019-01-14"
  },
  {
    "end_date": "2019-01-15",
    "url": "https://uw-madison-datascience.github.io/2019-01-14-uwmadison-swc/",
    "country": "US",
    "instructors": "Baptiste Mouginot,Patrick Shriwise,Carolyn Voter,Paul Wilson",
    "venue": "Software Carpentry @ UW Madison",
    "longitude": -89.410268,
    "slug": "2019-01-14-uwmadison-swc",
    "tag_name": "SWC",
    "helpers": "David Hoese,Kalin Kiesling,Steve Meyer,Sailendharan Sudakaran",
    "host_name": "University of Wisconsin - Madison",
    "latitude": 43.0729163,
    "start_date": "2019-01-14"
  },
  {
    "end_date": "2019-01-12",
    "url": "https://idi-bd2k.github.io/2019-01-11-puerto_rico-Python/",
    "country": "PR",
    "instructors": "Patricia Ordóñez,Wilson Lozano",
    "venue": "University of Puerto Rico Río Piedras",
    "longitude": -66.0463582,
    "slug": "2019-01-11-puerto_rico-Python",
    "tag_name": "SWC",
    "helpers": "Israel Dilán,Lillian Gonzalez",
    "host_name": "University of Puerto Rico",
    "latitude": 18.4044218,
    "start_date": "2019-01-11"
  },
  {
    "end_date": "2019-01-12",
    "url": "https://idi-bd2k.github.io/2019-01-11-puerto_rico-R/",
    "country": "PR",
    "instructors": "Humberto Ortiz-Zuazaga,Sofia Melendez-Cartagena",
    "venue": "University of Puerto Rico Río Piedras",
    "longitude": -66.0463582,
    "slug": "2019-01-11-puerto_rico-R",
    "tag_name": "SWC",
    "helpers": "Israel Dilán,Jeffrey Chan,Heriberto Camacho,Louis Gil,Briknie Báez",
    "host_name": "University of Puerto Rico",
    "latitude": 18.4044218,
    "start_date": "2019-01-11"
  },
  {
    "end_date": "2019-01-11",
    "url": "https://mickley.github.io/2019-01-10-UCONN/",
    "country": "US",
    "instructors": "Timothy Moore,James Mickley,Cera Fisher,Jeremy Teitelbaum,Artemis Louyaki",
    "venue": "University of Connecticut",
    "longitude": -72.253772,
    "slug": "2019-01-10-UCONN",
    "tag_name": "SWC",
    "helpers": "Pariksheet Nanda,Eliza Grames,Dipanjana Dalui,Alex Trouern-Trend",
    "host_name": "University of Connecticut",
    "latitude": 41.805992,
    "start_date": "2019-01-10"
  },
  {
    "end_date": "2019-01-11",
    "url": "https://fpsom.github.io/2019-01-10-elixir-athens/",
    "country": "GR",
    "instructors": "Malvika Sharan,Toby Hodges,Fotis Psomopoulos",
    "venue": "BRFAA - Biomedical Research Foundation Academy of Athens",
    "longitude": 23.780932,
    "slug": "2019-01-10-elixir-athens",
    "tag_name": "SWC",
    "helpers": null,
    "host_name": "ELIXIR-UK",
    "latitude": 37.991431,
    "start_date": "2019-01-10"
  },
  {
    "end_date": "2019-01-11",
    "url": "https://osu-carpentry.github.io/2019-01-10-okstate/",
    "country": "US",
    "instructors": "Phillip Doehle,Nathalia Graf-Grachet,Dave Lampert,Peter Hoyt",
    "venue": "Oklahoma State University",
    "longitude": -97.069754,
    "slug": "2019-01-10-okstate",
    "tag_name": "SWC",
    "helpers": "Evan Linde,Pratishtha Poudel,Patrice-Andre Prud'homme,Atiya Banerjee,Kay BJornen,Kevin Dyke,Damith Mahapatabendige",
    "host_name": "Oklahoma State University",
    "latitude": 36.12297,
    "start_date": "2019-01-10"
  },
  {
    "end_date": "2019-01-10",
    "url": "https://lo5an.github.io/2019-01-09-carnegie/",
    "country": "US",
    "instructors": "Logan Cox,Daniel Kerchner",
    "venue": "Carnegie Mellon University",
    "longitude": -79.9439424,
    "slug": "2019-01-09-carnegie",
    "tag_name": "SWC",
    "helpers": "Eric Kaltman,Huajin Wang,Emma Slayton",
    "host_name": "Carnegie Mellon University",
    "latitude": 40.4410639,
    "start_date": "2019-01-09"
  },
  {
    "end_date": "2019-01-09",
    "url": "https://nesclic.github.io/2019-01-08-umass/",
    "country": "US",
    "instructors": "Thea Atwood,JAMES BURKE,Sarah Oelker",
    "venue": "University of Massachusetts Amherst",
    "longitude": -72.52825,
    "slug": "2019-01-08-umass",
    "tag_name": "SWC",
    "helpers": null,
    "host_name": "University of Massachusetts",
    "latitude": 42.389813,
    "start_date": "2019-01-08"
  },
  {
    "end_date": "2019-01-08",
    "url": "https://bham-carpentries.github.io/2019-01-07-bham",
    "country": "GB",
    "instructors": "Laurence Hurst,Simon Branford",
    "venue": "University of Birmingham",
    "longitude": -1.929322,
    "slug": "2019-01-07-bham",
    "tag_name": "SWC",
    "helpers": "Michael Allaway",
    "host_name": "University of Birmingham",
    "latitude": 52.451703,
    "start_date": "2019-01-07"
  },
  {
    "end_date": "2019-01-08",
    "url": "https://software-carpentry-uark.github.io/2019-01-07-uark/",
    "country": "US",
    "instructors": "Jason Williams,Bob Freeman",
    "venue": "Software Carpentry @ University of Arkansas",
    "longitude": -94.168058,
    "slug": "2019-01-07-uark",
    "tag_name": "SWC",
    "helpers": "Mary Leverance,James McCartney,Les Seigneur,Nick Salonen,Joe Paparo",
    "host_name": "University of Arkansas",
    "latitude": 36.042345,
    "start_date": "2019-01-07"
  },
  {
    "end_date": "2019-01-06",
    "url": "https://abostroem.github.io/2019-01-05-aas/",
    "country": "US",
    "instructors": "Azalee Bostroem,Jules Fowler",
    "venue": "Software Carpentry at AAS 223",
    "longitude": -122.33203,
    "slug": "2019-01-05-aas",
    "tag_name": "SWC",
    "helpers": "Rodolfo Montez,Meredith Rawls,Brett Morris",
    "host_name": "University of California Davis",
    "latitude": 47.61267,
    "start_date": "2019-01-05"
  },
  {
    "end_date": "2018-12-20",
    "url": "https://oulib-swc.github.io/2018-12-19-ou-swc/",
    "country": "US",
    "instructors": "Claire Curry,Mark Laufersweiler,Sarah Pugachev",
    "venue": "University of Oklahoma",
    "longitude": -97.445848,
    "slug": "2018-12-19-ou-swc",
    "tag_name": "SWC",
    "helpers": "Amanda Schilling,Brent Tweedy,Dawn Nekorchuk,Jim Ferguson,Traci DuBose,Joshua Hatzis",
    "host_name": "University of Oklahoma",
    "latitude": 35.208275,
    "start_date": "2018-12-19"
  },
  {
    "end_date": "2018-12-18",
    "url": "https://bham-carpentries.github.io/2018-12-17-bham/",
    "country": "GB",
    "instructors": "Mark Slater,Laurence Hurst",
    "venue": "University of Birmingham",
    "longitude": -1.935646,
    "slug": "2018-12-17-bham",
    "tag_name": "SWC",
    "helpers": "Cerys Lewis",
    "host_name": "University of Birmingham",
    "latitude": 52.450693,
    "start_date": "2018-12-17"
  },
  {
    "end_date": "2018-12-18",
    "url": "https://umswc.github.io/2018-12-17-umich/",
    "country": "US",
    "instructors": "William Close,Begum Topcuoglu,Joshua Stough",
    "venue": "University of Michigan",
    "longitude": -83.734801,
    "slug": "2018-12-17-umich",
    "tag_name": "SWC",
    "helpers": "Ada Hagan,Josie Libertucci,Kelly Sovacool",
    "host_name": "University of Michigan",
    "latitude": 42.283312,
    "start_date": "2018-12-17"
  },
  {
    "end_date": "2018-12-18",
    "url": "https://umswc.github.io/2019-01-07-umich-wise/",
    "country": "US",
    "instructors": "Stephanie Thiede,Ada Hagan,Josie Libertucci,Zena Lapp",
    "venue": "University of Michigan",
    "longitude": -83.733373,
    "slug": "2019-01-07-umich-wise",
    "tag_name": "SWC",
    "helpers": "Begum Topcuoglu,Katie Saund",
    "host_name": "University of Michigan",
    "latitude": 42.277102,
    "start_date": "2018-12-17"
  },
  {
    "end_date": "2018-12-11",
    "url": "https://starescomp.github.io/2018-12-10-standrews/",
    "country": "GB",
    "instructors": "Alexander Konovalov,Patrick McCann,Michael Torpey,Isla Barnard",
    "venue": "University of St Andrews",
    "longitude": -2.807981,
    "slug": "2018-12-10-standrews",
    "tag_name": "SWC",
    "helpers": "Peter Thorpe,Arron Burnage,Caroline Elliott,Kevin Jones,Samuel Neale,Joseph Ward",
    "host_name": "University of St. Andrews",
    "latitude": 56.340783,
    "start_date": "2018-12-10"
  },
  {
    "end_date": "2018-12-20",
    "url": "https://scw-ss.github.io/2018-12-05-cfm/",
    "country": "ES",
    "instructors": "Inigo Aldazabal Mensa,Diego Lasa,David De Sancho,Sofia Sanz",
    "venue": "Centro de Física de Materiales (CSIC-UPV/EHU)",
    "longitude": -2.009502,
    "slug": "2018-12-05-cfm",
    "tag_name": "SWC",
    "helpers": "Daniel Arismendi,Xiang Xu,Unai Aseguinolaza,Abel Carreras",
    "host_name": "Institute for Theoretical Physics UAM-CSIC",
    "latitude": 43.305667,
    "start_date": "2018-12-05"
  },
  {
    "end_date": "2018-12-07",
    "url": "https://malvikasharan.github.io/2018-12-05-quilmes/",
    "country": "AR",
    "instructors": "Malvika Sharan,Marc Gouw",
    "venue": "Computational Skills for Life Scientists, Universidad Nacional de Quilmes",
    "longitude": -75.576103,
    "slug": "2018-12-05-quilmes",
    "tag_name": "SWC",
    "helpers": "Leonardo Ulises Spairani,Lucía Álvarez,Tadeo Saldaño,German Barletta",
    "host_name": "National University of Quilmes",
    "latitude": 6.26282,
    "start_date": "2018-12-05"
  },
  {
    "end_date": "2018-12-04",
    "url": "https://dpnemergut.github.io/2018-12-03-STSCI/",
    "country": "US",
    "instructors": "Danielle Nielsen,Daniel Nemergut",
    "venue": "Space Telescope Science Institute",
    "longitude": -76.630592,
    "slug": "2018-12-03-STSCI",
    "tag_name": "SWC",
    "helpers": "Mees Fix",
    "host_name": "Space Telescope Science Institute",
    "latitude": 39.336979,
    "start_date": "2018-12-03"
  },
  {
    "end_date": "2018-12-04",
    "url": "https://matthewclark1223.github.io/2018-12-03-umn/",
    "country": "US",
    "instructors": "Jon Badalamenti,Matt Clark",
    "venue": "University of Minnesota, Minneapolis",
    "longitude": -93.236408,
    "slug": "2018-12-03-umn",
    "tag_name": "SWC",
    "helpers": "Cody Hennesy,Peter Wiringa,Nick Dunn,Alicia Hofelich-Mohr,Seth Mayotte",
    "host_name": "University of Minnesota",
    "latitude": 44.97532,
    "start_date": "2018-12-03"
  },
  {
    "end_date": "2018-12-02",
    "url": "https://fpsom.github.io/2018-12-01-elixir-debrecen/",
    "country": "HU",
    "instructors": "Marco Chiapello,Fotis Psomopoulos",
    "venue": "University of Debrecen, Medical Faculty",
    "longitude": 21.63517,
    "slug": "2018-12-01-elixir-debrecen",
    "tag_name": "SWC",
    "helpers": "Endre Sebestyen,Gergely Sipos,Matyas Schiller,Tibor Nagy,Attila Horvath,Robert Herczeg,Abel Fothi",
    "host_name": "ELIXIR-UK",
    "latitude": 47.53986,
    "start_date": "2018-12-01"
  },
  {
    "end_date": "2018-11-30",
    "url": "https://mariekedirk.github.io/2018-11-29-Delft/",
    "country": "NL",
    "instructors": "Marieke Dirksen,Willem Ligtenberg,Kees den Heijer",
    "venue": "First Software Carpentry @TU Delft",
    "longitude": 4.36026,
    "slug": "2018-11-29-Delft",
    "tag_name": "SWC",
    "helpers": "Elin Vesper,Raúl Ortiz-Merino,Nadir Ahami",
    "host_name": "Delft Univeristy of Technology",
    "latitude": 52.0119,
    "start_date": "2018-11-29"
  },
  {
    "end_date": "2018-11-30",
    "url": "https://nesclic.github.io/2018-11-29-dartmouth/",
    "country": "US",
    "instructors": "Christian Darabos,James Adams,Lora Leligdon,Stephen Gaughan,JIANJUN HUA",
    "venue": "Dartmouth College",
    "longitude": -72.2839,
    "slug": "2018-11-29-dartmouth",
    "tag_name": "SWC",
    "helpers": "Pamela Bagley",
    "host_name": "Dartmouth College",
    "latitude": 43.70903,
    "start_date": "2018-11-29"
  },
  {
    "end_date": "2018-11-30",
    "url": "https://jamieshq.github.io/2018-11-29-stanford_medicine/",
    "country": "US",
    "instructors": "Nihan Pol,Jamie Whitacre",
    "venue": "Stanford University Medicine",
    "longitude": -122.170093,
    "slug": "2018-11-29-stanford_medicine",
    "tag_name": "SWC",
    "helpers": "Ahmed Nagy El Kaffas,Cedric Espenel,Sylvia Fechner,Xulei Qin,Sijie Wei",
    "host_name": "Stanford University",
    "latitude": 37.434496,
    "start_date": "2018-11-29"
  },
  {
    "end_date": "2018-11-29",
    "url": "https://adgdt.github.io/2018-11-28-cftmat/",
    "country": "ES",
    "instructors": "Inigo Aldazabal Mensa,Francisco Martinez-Murcia,Bryan Zaldivar,Alfonso Nunez",
    "venue": "Centro de Física Teórica y Matemáticas",
    "longitude": -3.687608,
    "slug": "2018-11-28-cftmat",
    "tag_name": "SWC",
    "helpers": "Emilio Ambite,Andrés Díaz-Gil,Eduardo de Cordoba,David\t\"Gordo david.gg.phy@gmail.com,M. Ram?rez",
    "host_name": "Institute for Theoretical Physics UAM-CSIC",
    "latitude": 40.549532,
    "start_date": "2018-11-28"
  },
  {
    "end_date": "2018-11-28",
    "url": "https://starescomp.github.io/2018-11-27-standrews/",
    "country": "GB",
    "instructors": "Isla Barnard,Alexander Konovalov,Peter Cock,Patrick McCann,Leighton Pritchard,Michael Torpey",
    "venue": "University of St Andrews",
    "longitude": -2.793983,
    "slug": "2018-11-27-standrews",
    "tag_name": "SWC",
    "helpers": null,
    "host_name": "University of St. Andrews",
    "latitude": 56.339324,
    "start_date": "2018-11-27"
  },
  {
    "end_date": "2018-11-29",
    "url": "https://epfllibrary.github.io/2018-11-20-epfl/",
    "country": "",
    "instructors": "Raphaël Grolimund,Jérôme Chaptinel,Antoine Masson,Mathilde Panes",
    "venue": "EPFL Library - Ecole Polytechnique Fédérale de Lausanne",
    "longitude": 6.568269,
    "slug": "2018-11-20-epfl",
    "tag_name": "SWC",
    "helpers": "C_cile Hardebolle,Ludovic Bonivento",
    "host_name": "École polytechnique fédérale de Lausanne",
    "latitude": 46.518304,
    "start_date": "2018-11-20"
  },
  {
    "end_date": "2018-11-20",
    "url": "https://anenadic.github.io/2018-11-19-manchester/",
    "country": "GB",
    "instructors": "Gerard Capes,Dave Jones",
    "venue": "University of Manchester",
    "longitude": -2.2296408,
    "slug": "2018-11-19-manchester",
    "tag_name": "SWC",
    "helpers": "Peter Smyth,Aleksandra Nenadic,Daniel Nisbet",
    "host_name": "University of Manchester",
    "latitude": 53.4640904,
    "start_date": "2018-11-19"
  },
  {
    "end_date": "2018-11-21",
    "url": "https://computecanada.github.io/2018-11-14-mcgill/",
    "country": "CA",
    "instructors": "Simon Nderitu,Pier-Luc St-Onge,Bart Oldeman,Daniel Stubbs",
    "venue": "McGill University",
    "longitude": -73.578345,
    "slug": "2018-11-14-mcgill",
    "tag_name": "SWC",
    "helpers": null,
    "host_name": "McGill University",
    "latitude": 45.506864,
    "start_date": "2018-11-14"
  },
  {
    "end_date": "2018-11-15",
    "url": "https://mkcor.github.io/2018-11-14-trento/",
    "country": "IT",
    "instructors": "Marianne Corvellec,Lachlan Deer",
    "venue": "University of Trento",
    "longitude": 11.13908,
    "slug": "2018-11-14-trento",
    "tag_name": "SWC",
    "helpers": "Gianfranco Abrusci,Mirko Bagnarol,Matteo Finazzer,Simone Orioli,Michele Turelli",
    "host_name": "University of Trento",
    "latitude": 46.06703,
    "start_date": "2018-11-14"
  },
  {
    "end_date": "2018-11-10",
    "url": "https://nesclic.github.io/2018-11-09-tufts/",
    "country": "US",
    "instructors": "Allison Gofman,Kristin Lee,Kyle Monahan",
    "venue": "Tufts University",
    "longitude": -71.11884,
    "slug": "2018-11-09-tufts",
    "tag_name": "SWC",
    "helpers": "Travis Lilleberg,Lenny Paritsky,Annie Swafford,Chelcie Rowell",
    "host_name": "Tufts University",
    "latitude": 42.406172,
    "start_date": "2018-11-09"
  },
  {
    "end_date": "2018-11-08",
    "url": "https://kmichali.github.io/2018-11-07-Imperial/",
    "country": "GB",
    "instructors": "Katerina Michalickova,Santiago Lacalle,Krishnakumar Gopalakrishnan,Eamonn Murray",
    "venue": "Imperial College London",
    "longitude": -0.174877,
    "slug": "2018-11-07-Imperial",
    "tag_name": "SWC",
    "helpers": null,
    "host_name": "Imperial College London",
    "latitude": 51.4988,
    "start_date": "2018-11-07"
  },
  {
    "end_date": "2018-11-08",
    "url": "http://rits.github-pages.ucl.ac.uk/2018-11-07-UCL_software_carpentry/",
    "country": "GB",
    "instructors": "Samantha Ahern,Roland Guichard,Shkita Das,Vilma Agalioti Sgompou",
    "venue": "University College London",
    "longitude": -0.132326449,
    "slug": "2018-11-07-UCL_software_carpentry",
    "tag_name": "SWC",
    "helpers": "Asif Tamuri,Thomas Dowrick,Anastasis Georgoulas",
    "host_name": "University College London",
    "latitude": 51.52538039,
    "start_date": "2018-11-07"
  },
  {
    "end_date": "2018-11-06",
    "url": "https://computecanada.github.io/2018-11-05-umontreal/",
    "country": "CA",
    "instructors": "Daniel Stubbs,Nikolai Sergueev,Pier-Luc St-Onge",
    "venue": "Université de Montréal",
    "longitude": -73.618536,
    "slug": "2018-11-05-umontreal",
    "tag_name": "SWC",
    "helpers": "Daniel Stubbs,Nikolai Sergueev,Pier-Luc St-Onge",
    "host_name": "Universite de Montreal",
    "latitude": 45.498663,
    "start_date": "2018-11-05"
  },
  {
    "end_date": "2018-11-30",
    "url": "https://osu-carpentry.github.io/2018-11-02-okstate-afternoon/",
    "country": "US",
    "instructors": "Phillip Doehle,Gautham Brahma Ponnaganti,Patrice-Andre Prud'homme",
    "venue": "Oklahoma State University",
    "longitude": -97.069701,
    "slug": "2018-11-02-okstate-afternoon",
    "tag_name": "SWC",
    "helpers": "Kay BJornen,Damith Mahapatabendige,Evan Linde,Kevin Dyke,Nathalia Graf-Grachet,Peter Hoyt,Dave Lampert",
    "host_name": "Oklahoma State University",
    "latitude": 36.122953,
    "start_date": "2018-11-02"
  },
  {
    "end_date": "2018-11-30",
    "url": "https://osu-carpentry.github.io/2018-11-02-okstate-morning/",
    "country": "US",
    "instructors": "Nathalia Graf-Grachet,Dave Lampert,Kevin Dyke",
    "venue": "Oklahoma State University",
    "longitude": -97.069701,
    "slug": "2018-11-02-okstate-morning",
    "tag_name": "SWC",
    "helpers": "Kay BJornen,Phillip Doehle,Gautham Brahma Ponnaganti,Damith Mahapatabendige,Kevin Drees,Peter Hoyt,Evan Linde,Patrice-Andre Prud'homme",
    "host_name": "Oklahoma State University",
    "latitude": 36.122953,
    "start_date": "2018-11-02"
  },
  {
    "end_date": "2018-11-02",
    "url": "https://noracmitchell.github.io/2018-11-01-ucmerced/",
    "country": "US",
    "instructors": "Sabah Ul-Hasan,Nora Mitchell",
    "venue": "UC Merced",
    "longitude": -120.424329,
    "slug": "2018-11-01-ucmerced",
    "tag_name": "SWC",
    "helpers": "Tyrome Sweet,Martha Kandziora,Amin Boroomand,Rhondene Wint,Katie Coburn",
    "host_name": "University of California Merced",
    "latitude": 37.366363,
    "start_date": "2018-11-01"
  },
  {
    "end_date": "2018-10-30",
    "url": "https://denubis.github.io/2018-10-29-MacquarieUniversity/",
    "country": "AU",
    "instructors": "Brian Ballsun-Stanton,Robert Woodward,Richard Miller,Grant Sayer",
    "venue": "Macquarie University",
    "longitude": 151.113281,
    "slug": "2018-10-29-MacquarieUniversity",
    "tag_name": "SWC",
    "helpers": "Fiona Jones",
    "host_name": "Macquarie University",
    "latitude": -33.774804,
    "start_date": "2018-10-29"
  },
  {
    "end_date": "2018-10-30",
    "url": "https://pnnl-compbio.github.io/2018-10-29-PNNL-SWC/",
    "country": "US",
    "instructors": "Kyle Monson,Carlos Ortiz Marrero,Juan Brandi-Lozano",
    "venue": "Pacific Northwest National Laboratory",
    "longitude": -119.2783712,
    "slug": "2018-10-29-PNNL-SWC",
    "tag_name": "SWC",
    "helpers": "Jeremy Zucker",
    "host_name": "Pacific Northwest National Lab ",
    "latitude": 46.3513347,
    "start_date": "2018-10-29"
  },
  {
    "end_date": "2018-10-28",
    "url": "https://uhilgert.github.io/2018-10-27-Tucson/",
    "country": "US",
    "instructors": "Amy Hudson,Marnee Dearman,Julian Pistorius,Tyson Swetnam",
    "venue": "University of Arizona, Tucson",
    "longitude": -110.9495,
    "slug": "2018-10-27-Tucson",
    "tag_name": "SWC",
    "helpers": "Uwe Hilgert,Xiang Liu,Cesar Medina,Misty Ring-Ramirez,Fernando Rios,Travis Struck,Frank Ventura,Niraj Altekar,Michael Hernandez,Branden Lau,Cristian Palacios,James Waters",
    "host_name": "University of Arizona",
    "latitude": 32.231901,
    "start_date": "2018-10-27"
  },
  {
    "end_date": "2018-10-28",
    "url": "https://statkclee.github.io/2018-10-27-hallym/",
    "country": "KR",
    "instructors": "Nicholas Tierney,Kwangchun Lee",
    "venue": "한림대학교",
    "longitude": 127.7358,
    "slug": "2018-10-27-hallym",
    "tag_name": "SWC",
    "helpers": null,
    "host_name": "Hallym University",
    "latitude": 37.8863,
    "start_date": "2018-10-27"
  },
  {
    "end_date": "2018-10-28",
    "url": "https://nscatlin.github.io/2018-11-27-Carnegie/",
    "country": "US",
    "instructors": "Nathan Catlin,Rebecca Lowdon",
    "venue": "Carnegie Mellon University",
    "longitude": -79.943016,
    "slug": "2018-11-27-Carnegie",
    "tag_name": "SWC",
    "helpers": "Huajin Wang,Eric Kaltman",
    "host_name": "Carnegie Mellon University",
    "latitude": 40.442806,
    "start_date": "2018-10-27"
  },
  {
    "end_date": "2018-10-26",
    "url": "https://rbavery.github.io/2018-10-25-odu/",
    "country": "US",
    "instructors": "Josh Quan,Ryan Avery",
    "venue": "Old Dominion University",
    "longitude": -76.300612,
    "slug": "2018-10-25-odu",
    "tag_name": "SWC",
    "helpers": "Wirawan Purwanto,Sophie Clayton,Dan Barshis,Terry Stilwell",
    "host_name": "Old Dominion University",
    "latitude": 36.884672,
    "start_date": "2018-10-25"
  },
  {
    "end_date": "2018-10-26",
    "url": "https://unt-carpentries.github.io/2018-10-25-unt-swc/",
    "country": "US",
    "instructors": "Pamela Andrews,Kristy Phillips,Jason Ellis,Manuel (Gio) Gottardi",
    "venue": "University of North Texas",
    "longitude": -97.148954,
    "slug": "2018-10-25-unt-swc",
    "tag_name": "SWC",
    "helpers": "Madhulika Bayyavarapu,Douglas Burns,Maristella Feustle,Mark Phillips,Lauren Ko",
    "host_name": "University of North Texas",
    "latitude": 33.210068,
    "start_date": "2018-10-25"
  },
  {
    "end_date": "2018-10-25",
    "url": "https://orchid00.github.io/2018-10-24-ugent/",
    "country": "BE",
    "instructors": "Paula Andrea Martinez,Stijn Van Hoey,Christof De Bo",
    "venue": "University of Ghent",
    "longitude": 3.708959,
    "slug": "2018-10-24-ugent",
    "tag_name": "SWC",
    "helpers": "Mauricio\tMacossay Castillo,Raf Winand",
    "host_name": "ELIXIR-UK",
    "latitude": 51.052779,
    "start_date": "2018-10-24"
  },
  {
    "end_date": "2018-10-23",
    "url": "https://jjborrelli.github.io/2018-10-22-Stonybrook-IACS-R/",
    "country": "US",
    "instructors": "Jonathan Borrelli,Elise Lauterbur",
    "venue": "Stonybrook",
    "longitude": -73.141129,
    "slug": "2018-10-22-Stonybrook-IACS-R",
    "tag_name": "SWC",
    "helpers": null,
    "host_name": "Stony Brook University",
    "latitude": 40.92569,
    "start_date": "2018-10-22"
  },
  {
    "end_date": "2018-10-23",
    "url": "https://jules32.github.io/2018-10-22-whoi/",
    "country": "US",
    "instructors": "Julia Lowndes,Jamie Afflerbach",
    "venue": "Woods Hole Oceanographic Institution",
    "longitude": -70.671161,
    "slug": "2018-10-22-whoi",
    "tag_name": "SWC",
    "helpers": "Brett Longworth,Craig McLean",
    "host_name": "Woods Hole Oceanographic Institute",
    "latitude": 41.524235,
    "start_date": "2018-10-22"
  },
  {
    "end_date": "2018-10-18",
    "url": "https://vickysteeves.github.io/2018-10-18-nyu/",
    "country": "US",
    "instructors": "Vicky Steeves,Nicholas Wolf",
    "venue": "New York University",
    "longitude": -73.997218,
    "slug": "2018-10-18-nyu",
    "tag_name": "SWC",
    "helpers": "Heiko Mueller,Rémi Rampin,Djellel Difallah",
    "host_name": "New York University",
    "latitude": 40.729429,
    "start_date": "2018-10-18"
  },
  {
    "end_date": "2018-10-19",
    "url": "https://osu-carpentry.github.io/2018-10-18-okstate/",
    "country": "US",
    "instructors": "Kevin Dyke,Pratishtha Poudel,Nathalia Graf-Grachet,Dave Lampert,Ki Cole",
    "venue": "Oklahoma State University",
    "longitude": -97.069701,
    "slug": "2018-10-18-okstate",
    "tag_name": "SWC",
    "helpers": "Evan Linde,Kay BJornen,Phillip Doehle,Gautham Brahma Ponnaganti,Ross Bowman,Damith Mahapatabendige,Madhuranga Thilakasiri",
    "host_name": "Oklahoma State University",
    "latitude": 36.122953,
    "start_date": "2018-10-18"
  },
  {
    "end_date": "2018-10-18",
    "url": "https://kpoterlowicz.github.io/2018-10-17-oxford-swc/",
    "country": "GB",
    "instructors": "Krzysztof Poterlowicz,Mark Dunning,Michal Gdula,Katarzyna Murat,Nadezda Fursowa",
    "venue": "Software Carpentry @ Oxford University",
    "longitude": -1.258617,
    "slug": "2018-10-17-oxford-swc",
    "tag_name": "SWC",
    "helpers": "Alex Orlek,Aino Jarvelin,Guifeng Wei,Joseph Bowness",
    "host_name": "University of Oxford",
    "latitude": 51.760053,
    "start_date": "2018-10-17"
  },
  {
    "end_date": "2018-10-12",
    "url": "https://annefou.github.io/2018-10-11-Uppsala-SWC/",
    "country": "SE",
    "instructors": "Ana Costa Conrado,Anne Fouilloux",
    "venue": "Software Carpentry @ Swedish University of Agricultural Sciences",
    "longitude": 17.64462,
    "slug": "2018-10-11-Uppsala-SWC",
    "tag_name": "SWC",
    "helpers": "Samantha Dawson,Henna Fabritius",
    "host_name": "Swedish University of Agricultural Sciences",
    "latitude": 59.85813,
    "start_date": "2018-10-11"
  },
  {
    "end_date": "2018-10-11",
    "url": "https://kimdurante.github.io/2018-10-10-sul/",
    "country": "US",
    "instructors": "Kim Durante,Zac Painter,Mary-Ellen Petrich",
    "venue": "Stanford University",
    "longitude": -122.16714,
    "slug": "2018-10-10-sul",
    "tag_name": "SWC",
    "helpers": "Amy Hodge,Melissa Ko,Jessie Keck,Emily Flynn",
    "host_name": "Stanford University",
    "latitude": 37.427065,
    "start_date": "2018-10-10"
  },
  {
    "end_date": "2018-10-10",
    "url": "https://ab604.github.io/2018-10-09-umea/",
    "country": "SE",
    "instructors": "Alistair Bailey,Luca Di Stasio",
    "venue": "HPC2N Umeå University",
    "longitude": 20.307391,
    "slug": "2018-10-09-umea",
    "tag_name": "SWC",
    "helpers": "Birgitte Briydsö,Pedro Ojeda",
    "host_name": "Umeå University",
    "latitude": 63.820495,
    "start_date": "2018-10-09"
  },
  {
    "end_date": "2018-10-10",
    "url": "https://bio-swc-bne.github.io/2018-10-08-GriffithUni-Python/",
    "country": "AU",
    "instructors": "Amanda Miotto,Kim Keogh",
    "venue": "Griffith University",
    "longitude": 153.378868,
    "slug": "2018-10-08-GriffithUni-Python",
    "tag_name": "SWC",
    "helpers": null,
    "host_name": "Griffith University",
    "latitude": -27.960345,
    "start_date": "2018-10-08"
  },
  {
    "end_date": "2018-10-09",
    "url": "https://dwinston.github.io/2018-10-08-Stonybrook-IACS-Python/",
    "country": "US",
    "instructors": "Donny Winston,Marisa Lim",
    "venue": "Stony Brook University",
    "longitude": -73.120865,
    "slug": "2018-10-08-Stonybrook-IACS-Python",
    "tag_name": "SWC",
    "helpers": "Maria Barrios Sazo,Lisa Prowant",
    "host_name": "Stony Brook University",
    "latitude": 40.911813,
    "start_date": "2018-10-08"
  },
  {
    "end_date": "2018-10-09",
    "url": "https://erdc.github.io/2018-10-09-chl/",
    "country": "US",
    "instructors": "Chris Kees,Drew Loney",
    "venue": "Coastal and Hydraulics Laboratory",
    "longitude": -90.8665134,
    "slug": "2018-10-09-chl",
    "tag_name": "SWC",
    "helpers": "Alistair Bentley",
    "host_name": "US Army Engineer Research and Development Center",
    "latitude": 32.2997118,
    "start_date": "2018-10-08"
  },
  {
    "end_date": "2018-10-06",
    "url": "https://gboushey.github.io/2018-10-05-UCSF-Python/",
    "country": "US",
    "instructors": "Geoffrey Boushey,Will Trimble",
    "venue": "University of California, San Francisco",
    "longitude": -122.390344,
    "slug": "2018-10-05-UCSF-Python",
    "tag_name": "SWC",
    "helpers": "Brendan Burkart,Angelo Pelonero,Jordan Burke,Rakesh Ramachandran,Yina Wang",
    "host_name": "University of California San Francisco",
    "latitude": 37.767411,
    "start_date": "2018-10-05"
  },
  {
    "end_date": "2018-10-06",
    "url": "https://kjlquist.github.io/2018-10-05-UCSF-R/",
    "country": "US",
    "instructors": "Kunal Marwaha,Karla Lindquist",
    "venue": "UCSF",
    "longitude": -122.39038,
    "slug": "2018-10-05-UCSF-R",
    "tag_name": "SWC",
    "helpers": "Amber Bahorik,Xiaoyuan Zhou,David Brown,Lohith Madireddy,Gaia Andreoletti",
    "host_name": "University of California San Francisco",
    "latitude": 37.76755,
    "start_date": "2018-10-05"
  },
  {
    "end_date": "2018-10-06",
    "url": "https://carpentries-workshops.github.io/2018-10-05-ttu/",
    "country": "US",
    "instructors": "John Corless,Nihan Pol",
    "venue": "Texas Tech University",
    "longitude": -101.874632,
    "slug": "2018-10-05-ttu",
    "tag_name": "SWC",
    "helpers": "Austin Coleman,Aaron Hill,Russell Manser,Tyler Wixtrom",
    "host_name": "Texas Tech University",
    "latitude": 33.587861,
    "start_date": "2018-10-05"
  },
  {
    "end_date": "2018-10-03",
    "url": "https://fgacenga.github.io/2018-10-02-usq/",
    "country": "AU",
    "instructors": "Elizabeth McCarthy,Richard Young,Francis Gacenga",
    "venue": "University of Southern Queensland",
    "longitude": 152.907227,
    "slug": "2018-10-02-usq",
    "tag_name": "SWC",
    "helpers": "Mathieu Clerte",
    "host_name": "Queensland Cyber Infrastructure Foundation",
    "latitude": -27.68401,
    "start_date": "2018-10-02"
  },
  {
    "end_date": "2018-10-04",
    "url": "https://uwescience.github.io/2018-10-01-UW-swc/",
    "country": "US",
    "instructors": "Kate Hertweck,Aaron Marburg,Chad Curtis,Bree Norlander",
    "venue": "The University of Washington eScience Institute",
    "longitude": -122.332071,
    "slug": "2018-10-01-UW-swc",
    "tag_name": "SWC",
    "helpers": "Chad Curtis,Ariel Rokem,Wu-Jung Lee,Callin Switzer,Yee Mey Seah,Colin Dietrich",
    "host_name": "University of Washington",
    "latitude": 47.606209,
    "start_date": "2018-10-01"
  },
  {
    "end_date": "2018-10-04",
    "url": "https://uwescience.github.io/2019-01-15-uw/",
    "country": "US",
    "instructors": "Chad Curtis,Michael Beyeler,Meredith Rawls,Colin Dietrich,Daniel McCloy",
    "venue": "The University of Washington eScience Institute",
    "longitude": -122.332071,
    "slug": "2019-01-15-uw",
    "tag_name": "SWC",
    "helpers": "Eleanor Lutz,Chad Curtis",
    "host_name": "University of Washington",
    "latitude": 47.606209,
    "start_date": "2018-10-01"
  },
  {
    "end_date": "2018-09-30",
    "url": "https://kokbent.github.io/2018-09-29-tamu-kingsville/",
    "country": "US",
    "instructors": "Kok Ben Toh,Mauro Lepore",
    "venue": "Texas A&M University-Kingsville",
    "longitude": -97.882441,
    "slug": "2018-09-29-tamu-kingsville",
    "tag_name": "SWC",
    "helpers": null,
    "host_name": "Texas A&M University-Kingsville",
    "latitude": 27.524951,
    "start_date": "2018-09-29"
  },
  {
    "end_date": "2018-09-28",
    "url": "https://primerano.github.io/2018-09-27-FRB/",
    "country": "US",
    "instructors": "Jennifer Gilbert,Tony Primerano,Brian Seok,Damian Thomas",
    "venue": "Federal Reserve Board",
    "longitude": -77.040454,
    "slug": "2018-09-27-FRB",
    "tag_name": "SWC",
    "helpers": null,
    "host_name": "Federal Reserve Board",
    "latitude": 38.896676,
    "start_date": "2018-09-27"
  },
  {
    "end_date": "2018-09-27",
    "url": "http://rits.github-pages.ucl.ac.uk/2018-09-26-UCL_software_carpentry/",
    "country": "GB",
    "instructors": "David Perez-Suarez,Shikta Das,Roland Guichard",
    "venue": "UCL",
    "longitude": 0.133528483,
    "slug": "2018-09-26-UCL_software_carpentry",
    "tag_name": "SWC",
    "helpers": "Nandini Badarinarayan,Paddy Rody,Davide Piras,Thomas Crossland,David Wright",
    "host_name": "University College London",
    "latitude": 51.52528389,
    "start_date": "2018-09-26"
  },
  {
    "end_date": "2018-10-17",
    "url": "https://msu-carpentries.github.io/2018-09-26-montana_state/",
    "country": "US",
    "instructors": "Stacey Hancock,Sara Mannheimer,David Millman",
    "venue": "Montana State University",
    "longitude": -111.048817,
    "slug": "2018-09-26-montana_state",
    "tag_name": "SWC",
    "helpers": "Allison Theobold,Paul Wilson-Harmon,Esther Birch",
    "host_name": "Montatna State University",
    "latitude": 45.666695,
    "start_date": "2018-09-26"
  },
  {
    "end_date": "2018-09-26",
    "url": "https://computecanada.github.io/2018-09-25-ualberta-HPC/",
    "country": "CA",
    "instructors": "John Simpson,Kamil Marcinkowski,Chris Want",
    "venue": "University of Alberta",
    "longitude": -113.525747,
    "slug": "2018-09-25-ualberta-HPC",
    "tag_name": "SWC",
    "helpers": "Erming Pei",
    "host_name": "University of Alberta",
    "latitude": 53.528117,
    "start_date": "2018-09-25"
  },
  {
    "end_date": "2018-09-25",
    "url": "https://fpsom.github.io/2018-09-24-CERTH/",
    "country": "GR",
    "instructors": "Fotis Psomopoulos,Thea Van Rossum,Renato Alves",
    "venue": "INAB|CERTH",
    "longitude": 22.997544,
    "slug": "2018-09-24-CERTH",
    "tag_name": "SWC",
    "helpers": "Maria Kotouza",
    "host_name": "The Centre for Research & Technology, Hellas",
    "latitude": 40.56797,
    "start_date": "2018-09-24"
  },
  {
    "end_date": "2018-09-26",
    "url": "https://kmichali.github.io/2018-09-24-Imperial/",
    "country": "GB",
    "instructors": "Chris Tomlinson,Amit Mandal,Santiago Lacalle,Lucy Whalley,Stefano Galvan,Daniel Nolte,Nicolas Barral,Edward Smith,Mayeul d'Avezac,Adam Jackson,Anat Melamed,Barbara Bodinier,Maryam Karimi,Jazz Mack Smith,Katerina Michalickova",
    "venue": "Imperial College London",
    "longitude": -0.174877,
    "slug": "2018-09-24-Imperial",
    "tag_name": "SWC",
    "helpers": null,
    "host_name": "Imperial College London",
    "latitude": 51.4988,
    "start_date": "2018-09-24"
  },
  {
    "end_date": "2018-09-25",
    "url": "https://bham-carpentries.github.io/2018-09-24-python/",
    "country": "GB",
    "instructors": "Mark Slater,Simon Branford",
    "venue": "University of Birmingham",
    "longitude": -1.934362,
    "slug": "2018-09-24-python",
    "tag_name": "SWC",
    "helpers": "Michael Allaway",
    "host_name": "University of Birmingham",
    "latitude": 52.450237,
    "start_date": "2018-09-24"
  },
  {
    "end_date": "2018-09-23",
    "url": "https://annawilliford.github.io/2018-09-22-UTA/",
    "country": "US",
    "instructors": "Balan Ramesh,Mohammed Adnan Qureshi,Farah Shamma,Joe Cloud,Richard Adams,James Titus-McQuillan",
    "venue": "University of Texas at Arlington",
    "longitude": -97.112926,
    "slug": "2018-09-22-UTA",
    "tag_name": "SWC",
    "helpers": "Peace Williamson,Daren Card,Anna Williford,Raisaamin Mustafi,Nitin Kanwar",
    "host_name": "University of Texas Arlington",
    "latitude": 32.729678,
    "start_date": "2018-09-22"
  },
  {
    "end_date": "2018-09-23",
    "url": "https://data-science-for-scientists-atl.github.io/2018-09-22-emory/",
    "country": "US",
    "instructors": "Sena Agezo,David Nicholson,Elyse Morin,Varun Saravanan",
    "venue": "Emory University",
    "longitude": -84.321305,
    "slug": "2018-09-22-emory",
    "tag_name": "SWC",
    "helpers": "Marko Bajic,Alex Dunlap,Sara Fielder,Lukas Hoffmann,Jay Lee,Rett Morrissette,Joe Natale,Katherine Overman,Jessica Owensby,Stephanie Prince,Kate Roman,Robert Thorstadt",
    "host_name": "Emory University",
    "latitude": 33.793181,
    "start_date": "2018-09-22"
  },
  {
    "end_date": "2018-09-21",
    "url": "https://bsurc.github.io/2018-09-21-sc/",
    "country": "US",
    "instructors": "Eric Jankowski,Lejo Flores,Mike Henry,Matthew Jones",
    "venue": "Boise State University",
    "longitude": -116.209994,
    "slug": "2018-09-21-sc",
    "tag_name": "SWC",
    "helpers": "Kyle Shannon,Kendra Kaiser",
    "host_name": "Boise State University",
    "latitude": 43.604172,
    "start_date": "2018-09-21"
  },
  {
    "end_date": "2018-09-21",
    "url": "https://crerecombinase.github.io/2018-09-20-chicago/",
    "country": "US",
    "instructors": "Nicholas Knoblauch,Arjun Biddanda,Briana Mittleman",
    "venue": "University of Chicago",
    "longitude": -87.602679,
    "slug": "2018-09-20-chicago",
    "tag_name": "SWC",
    "helpers": "Peter Carbonetto,Maryn Carlson,Ankeeta Shah,Zach Miller,Rahul Subramanian",
    "host_name": "University of Chicago",
    "latitude": 41.791836,
    "start_date": "2018-09-20"
  },
  {
    "end_date": "2018-09-21",
    "url": "https://swc-uiuc.github.io/2018-09-20-illinois/",
    "country": "US",
    "instructors": "Jenny Drnevich,Lindsay Clark,Madicken Munk,Elizabeth Wickes",
    "venue": "University of Illinois",
    "longitude": -88.2271851,
    "slug": "2018-09-20-illinois",
    "tag_name": "SWC",
    "helpers": "Neal Davis,Dena Strong",
    "host_name": "University of Illinois",
    "latitude": 40.1149832,
    "start_date": "2018-09-20"
  },
  {
    "end_date": "2018-09-21",
    "url": "https://marwahaha.github.io/2018-09-20-uvi/",
    "country": "US",
    "instructors": "Kunal Marwaha,Kevin Vilbig",
    "venue": "University of Virgin Islands",
    "longitude": -64.799296,
    "slug": "2018-09-20-uvi",
    "tag_name": "SWC",
    "helpers": "Tennika Lawrence,Shirmara O’Garro,Idrees Donaie,James Peters",
    "host_name": "University of the Virgin Islands",
    "latitude": 17.718009,
    "start_date": "2018-09-20"
  },
  {
    "end_date": "2018-09-19",
    "url": "https://libcce.github.io/2018-09-18-LC/",
    "country": "US",
    "instructors": "Christopher Erdmann,Laura Wrubel,Megan Potterbusch",
    "venue": "Library of Congress",
    "longitude": -77.004719,
    "slug": "2018-09-18-LC",
    "tag_name": "SWC",
    "helpers": "Mike Davidson,Grace Thomas,Mark Cooper,Charles Hosale,Chase Dooley,Drew Heles",
    "host_name": "Library of Congress",
    "latitude": 38.888684,
    "start_date": "2018-09-18"
  },
  {
    "end_date": "2018-09-19",
    "url": "https://mq-software-carpentry.github.io/2018-09-18-mq-python/",
    "country": "AU",
    "instructors": "Robert Woodward,Tim Keighley,Richard Miller,Grant Sayer",
    "venue": "Macquarie University",
    "longitude": 151.11301,
    "slug": "2018-09-18-mq-python",
    "tag_name": "SWC",
    "helpers": null,
    "host_name": "Macquarie University",
    "latitude": -33.775082,
    "start_date": "2018-09-18"
  },
  {
    "end_date": "2018-09-14",
    "url": "https://ucrlibrary.github.io/2018-09-13-ucr/",
    "country": "US",
    "instructors": "Noah Geraci,Katherine Koziar",
    "venue": "University of California, Riverside",
    "longitude": -117.327482,
    "slug": "2018-09-13-ucr",
    "tag_name": "SWC",
    "helpers": "Michele Potter,Swati Bhattacharyya,David Chen",
    "host_name": "University of California, Riverside",
    "latitude": 33.972643,
    "start_date": "2018-09-13"
  },
  {
    "end_date": "2018-09-14",
    "url": "https://umswc.github.io/2018-09-13-umich/",
    "country": "US",
    "instructors": "Zena Lapp,Srihari Sundar,Marc Sze,Stephanie Thiede",
    "venue": "University of Michigan",
    "longitude": -83.7358,
    "slug": "2018-09-13-umich",
    "tag_name": "SWC",
    "helpers": "Scott Martin",
    "host_name": "University of Michigan",
    "latitude": 42.2739,
    "start_date": "2018-09-13"
  },
  {
    "end_date": "2018-09-13",
    "url": "https://southampton-rsg.github.io/2018-09-18-southampton-swc/",
    "country": "GB",
    "instructors": "Stephen Crouch,John Robinson,Christopher Cave-Ayland,James Graham",
    "venue": "University of Southampton",
    "longitude": -1.39459,
    "slug": "2018-09-18-southampton-swc",
    "tag_name": "SWC",
    "helpers": null,
    "host_name": "University of Southampton",
    "latitude": 50.89267,
    "start_date": "2018-09-12"
  },
  {
    "end_date": "2018-09-12",
    "url": "https://edcarp.github.io/2018-09-11-edinburgh/",
    "country": "GB",
    "instructors": "Kieran Leach,Oliver Brown",
    "venue": "The University of Edinburgh",
    "longitude": -3.173591,
    "slug": "2018-09-11-edinburgh",
    "tag_name": "SWC",
    "helpers": "Ruairidh Macleod,Fiona Reid,Steve Carlysle-Davies,Philip Cass,Oliver Brown,Evgenij Belikov,John Ireland,David McKain",
    "host_name": "University of Edinburgh",
    "latitude": 55.921711,
    "start_date": "2018-09-11"
  },
  {
    "end_date": "2018-09-07",
    "url": "https://swc-uiuc.github.io/2018-09-06-illinois/",
    "country": "US",
    "instructors": "Samniqueka Halsey",
    "venue": "University of Illinois",
    "longitude": -88.2271851,
    "slug": "2018-09-06-illinois",
    "tag_name": "SWC",
    "helpers": "Neal Davis",
    "host_name": "University of Illinois",
    "latitude": 40.1149832,
    "start_date": "2018-09-06"
  },
  {
    "end_date": "2018-09-07",
    "url": "https://rroxford.github.io/2018-09-06-oxford/",
    "country": "GB",
    "instructors": "Paul Thompson,Sinan Shi,Stephen Jones",
    "venue": "University of Oxford",
    "longitude": -1.266539,
    "slug": "2018-09-06-oxford",
    "tag_name": "SWC",
    "helpers": "Laura Fortunato,Alex Orlek,Lydia France",
    "host_name": "University of Oxford",
    "latitude": 51.760206,
    "start_date": "2018-09-06"
  },
  {
    "end_date": "2018-09-26",
    "url": "https://carol-rowe666.github.io/2018-09-usu/",
    "country": "US",
    "instructors": "Binod Pokharel,Carol Rowe,Paul Wolf,Mallory Hagadorn",
    "venue": "Utah State University - Software Carpentry",
    "longitude": -111.809742,
    "slug": "2018-09-05-usu",
    "tag_name": "SWC",
    "helpers": "Sylvia Kinosian,Yen-Heng (Henry) Lin,Matthew Miksch",
    "host_name": "Utah State University",
    "latitude": 41.745161,
    "start_date": "2018-09-05"
  },
  {
    "end_date": "2018-09-05",
    "url": "https://tenet-rccpii.github.io/2018-09-03-CarpentryConnect-JHB-SWC/",
    "country": "ZA",
    "instructors": "Allegra Via,Samar Elsheikh,James San,Shun Pillay",
    "venue": "CarpentryConnect Johannesburg 2018 - Software Carpentry",
    "longitude": 28.2483343,
    "slug": "2018-09-03-CarpentryConnect-JHB-SWC",
    "tag_name": "SWC",
    "helpers": "Ziyaad Parker",
    "host_name": "Talarify",
    "latitude": -26.175525,
    "start_date": "2018-09-03"
  },
  {
    "end_date": "2018-08-31",
    "url": "https://ncsu-libraries.github.io/2018-08-30-NCSU/",
    "country": "US",
    "instructors": "Shaun Bennett,Brian Clee,Shreyas Narsipur,Amulya Pervaje",
    "venue": "North Carolina State University",
    "longitude": -78.676425,
    "slug": "2018-08-30-NCSU",
    "tag_name": "SWC",
    "helpers": "Sheila Saia,Pranav Hosangadi",
    "host_name": "North Carolina State University",
    "latitude": 35.769275,
    "start_date": "2018-08-30"
  },
  {
    "end_date": "2018-08-31",
    "url": "https://uwescience.github.io/2018-08-28-UW/",
    "country": "US",
    "instructors": "Vikas Pejaver,Dave Williams,Eurika Kaiser,Meredith Rawls,Callin Switzer,Aji John",
    "venue": "The University of Washington eScience Institute",
    "longitude": -122.332071,
    "slug": "2018-08-28-UW",
    "tag_name": "SWC",
    "helpers": "Ariel Rokem,Jimmy O'Donnell,Tiernan Martin,Meredith Rawls,Samuel White,Cecilia Noecker,Callin Switzer,Ritvik Vasan,Chad Curtis,Stephen Kaluzny,Shwetha Canchi Murali",
    "host_name": "University of Washington",
    "latitude": 47.606209,
    "start_date": "2018-08-28"
  },
  {
    "end_date": "2018-08-29",
    "url": "https://stapleto.github.io/swc-2018-08-28-qut/",
    "country": "AU",
    "instructors": "Jason D'Netto,Miles McBain",
    "venue": "Queensland University of Technology",
    "longitude": 153.028414,
    "slug": "2018-08-28-qut",
    "tag_name": "SWC",
    "helpers": null,
    "host_name": "Queensland University of Technology",
    "latitude": -27.47734,
    "start_date": "2018-08-28"
  },
  {
    "end_date": "2018-08-29",
    "url": "https://uw-madison-aci.github.io/2018-08-29-uwmadison-swc/",
    "country": "US",
    "instructors": "Kalin Kiesling,Stephen Meyer,Lauren Michael,Sarah Stevens",
    "venue": "Software Carpentry @ UW Madison",
    "longitude": -89.410268,
    "slug": "2018-08-29-uwmadison-swc",
    "tag_name": "SWC",
    "helpers": "David Hoese,Patrick Shriwise,Baptiste Mouginot",
    "host_name": "University of Wisconsin - Madison",
    "latitude": 43.0729163,
    "start_date": "2018-08-28"
  },
  {
    "end_date": "2018-08-29",
    "url": "https://columbiaswc.github.io/2018-08-27-Columbia-A/",
    "country": "US",
    "instructors": "Brian Luna Lucero,George Garrett,C.J. Wright",
    "venue": "Columbia University, Programming in Python 1",
    "longitude": -73.963194,
    "slug": "2018-08-27-Columbia-A",
    "tag_name": "SWC",
    "helpers": "Michael Weisner",
    "host_name": "Columbia University",
    "latitude": 40.806444,
    "start_date": "2018-08-27"
  },
  {
    "end_date": "2018-08-29",
    "url": "https://columbiaswc.github.io/2018-08-27-Columbia-B/",
    "country": "US",
    "instructors": "Mariel Nyrop,Cesar Arias",
    "venue": "Columbia University, Programming in Python 2",
    "longitude": -73.963194,
    "slug": "2018-08-27-Columbia-B",
    "tag_name": "SWC",
    "helpers": "Jochen Weber,Yanchen Liu,Parixit Davé",
    "host_name": "Columbia University",
    "latitude": 40.806444,
    "start_date": "2018-08-27"
  },
  {
    "end_date": "2018-08-29",
    "url": "https://columbiaswc.github.io/2018-08-27-Columbia-C/",
    "country": "US",
    "instructors": "Wei Yin,John Villa",
    "venue": "Columbia University, R for Reproducible Scientific Analysis",
    "longitude": -73.963194,
    "slug": "2018-08-27-Columbia-C",
    "tag_name": "SWC",
    "helpers": "Thomas Barraro,Bob Scott",
    "host_name": "Columbia University",
    "latitude": 40.806444,
    "start_date": "2018-08-27"
  },
  {
    "end_date": "2018-08-28",
    "url": "https://markcmiller86.github.io/2018-08-27-llnl/",
    "country": "US",
    "instructors": "Mark Miller,Jens von der Linden",
    "venue": "LLNL Materials Science",
    "longitude": -121.713635,
    "slug": "2018-08-27-llnl",
    "tag_name": "SWC",
    "helpers": "Ian Lee",
    "host_name": "Lawrence Livermore National Labs",
    "latitude": 37.690998,
    "start_date": "2018-08-27"
  },
  {
    "end_date": "2018-08-24",
    "url": "https://unt-carpentries.github.io/2018-08-23-unt-swc/",
    "country": "US",
    "instructors": "Pamela Andrews,Lauren Ko,Kristy Phillips,Mark Phillips",
    "venue": "University of North Texas",
    "longitude": -97.148954,
    "slug": "2018-08-23-unt-swc",
    "tag_name": "SWC",
    "helpers": "Jason Ellis,Manuel (Gio) Gottardi",
    "host_name": "University of North Texas",
    "latitude": 33.210068,
    "start_date": "2018-08-23"
  },
  {
    "end_date": "2018-08-21",
    "url": "https://primerano.github.io/2018-08-20-FRB/",
    "country": "US",
    "instructors": "Jennifer Gilbert,Tony Primerano,Brian Seok,Damian Thomas",
    "venue": "Federal Reserve Board",
    "longitude": -77.040454,
    "slug": "2018-08-20-FRB",
    "tag_name": "SWC",
    "helpers": null,
    "host_name": "Federal Reserve Board",
    "latitude": 38.896676,
    "start_date": "2018-08-20"
  },
  {
    "end_date": "2018-08-17",
    "url": "https://kulibraries.github.io/2018-08-16-gpn/",
    "country": "US",
    "instructors": "Jamene Brooks-Kieffer,Cortney Buffington",
    "venue": "University of Kansas",
    "longitude": -95.246741,
    "slug": "2018-08-16-GPN",
    "tag_name": "SWC",
    "helpers": "Tami Albin,Boryana Koseva,Greta Valentine,Tal Aharon,Matt Deakyne,Seth Martin,Andrea Pitt,Tal Aharon,Matt Deakyne,Seth Martin,Andrea Pitt",
    "host_name": "Great Plains Network",
    "latitude": 38.95487,
    "start_date": "2018-08-16"
  },
  {
    "end_date": "2018-08-17",
    "url": "https://steve855.github.io/2018-08-16-LANL/",
    "country": "US",
    "instructors": "Stephen Andrews,Cameron Bates,Andy Fraser,Christopher M Malone",
    "venue": "Los Alamos National Laboratory",
    "longitude": -106.319616,
    "slug": "2018-08-16-lanl",
    "tag_name": "SWC",
    "helpers": "Austin McCartney",
    "host_name": "Los Alamos National Laboratory",
    "latitude": 35.88612,
    "start_date": "2018-08-16"
  },
  {
    "end_date": "2018-08-17",
    "url": "https://osu-carpentry.github.io/2018-08-16-okstate/",
    "country": "US",
    "instructors": "Kevin Dyke,Nathalia Graf-Grachet,Dave Lampert,Gautham Brahma Ponnaganti",
    "venue": "Oklahoma State University",
    "longitude": -97.069761,
    "slug": "2018-08-16-okstate",
    "tag_name": "SWC",
    "helpers": "Phillip Doehle,Evan Linde,Pratishtha Poudel,Damith Mahapatabendige",
    "host_name": "Oklahoma State University",
    "latitude": 36.122978,
    "start_date": "2018-08-16"
  },
  {
    "end_date": "2018-08-16",
    "url": "https://punama.github.io/2018-08-15-SWC/",
    "country": "US",
    "instructors": "Miao Sun,Hao Ye,Gaurav Vaidya,Geraldine Klarenberg",
    "venue": "Software Carpentry with Python at University of Florida",
    "longitude": -82.344002,
    "slug": "2018-08-15-SWC",
    "tag_name": "SWC",
    "helpers": "Kok Ben Toh,Geraldine Klarenberg,Punam Amratia,Brian Stucky",
    "host_name": "University of Florida",
    "latitude": 29.647984,
    "start_date": "2018-08-15"
  },
  {
    "end_date": "2018-08-16",
    "url": "https://butterflyology.github.io/2018-08-15-stanford-python/",
    "country": "US",
    "instructors": "Chris Hamm,Anuj Guruacharya",
    "venue": "Stanford University",
    "longitude": -122.1754,
    "slug": "2018-08-15-stanford",
    "tag_name": "SWC",
    "helpers": "Zhiyong Zhang,Irina Trapido,Adam Nekimken,Ahmed Nagy El Kaffas",
    "host_name": "Stanford University",
    "latitude": 37.4335,
    "start_date": "2018-08-15"
  },
  {
    "end_date": "2018-08-16",
    "url": "https://zpainter.github.io/2018-08-15-stanford/",
    "country": "US",
    "instructors": "Joe Atzberger,Zac Painter,Lorraine Ling,Matthew Durrant",
    "venue": "Stanford University",
    "longitude": -122.175049,
    "slug": "2018-08-15-stanford-opa",
    "tag_name": "SWC",
    "helpers": null,
    "host_name": "Stanford University",
    "latitude": 37.433075,
    "start_date": "2018-08-15"
  },
  {
    "end_date": "2018-08-16",
    "url": "https://duke-gcb.github.io/2018-08-13-Duke/",
    "country": "US",
    "instructors": "Dan Leehr,Hilmar Lapp",
    "venue": "Duke University",
    "longitude": -78.943498,
    "slug": "2018-08-13-Duke",
    "tag_name": "SWC",
    "helpers": "Kimberly Roche,Melyssa Minto,Trung Tran",
    "host_name": "Duke University",
    "latitude": 36.002868,
    "start_date": "2018-08-13"
  },
  {
    "end_date": "2018-08-14",
    "url": "https://unlhcc.github.io/2018-08-13-NU/",
    "country": "US",
    "instructors": "Jingchao Zhang,Adam Caprez,Carrie Brown",
    "venue": "Unversity of Nebraska",
    "longitude": -96.016767,
    "slug": "2018-08-13-NU",
    "tag_name": "SWC",
    "helpers": "John Thiltges,Huijun Zhu,Eric Zhang,Caughlin Bohn,Mitchell Clark",
    "host_name": "University of Nebraska",
    "latitude": 41.24714,
    "start_date": "2018-08-13"
  },
  {
    "end_date": "2018-08-14",
    "url": "https://caltechlibrary.github.io/2018-08-13-caltech/",
    "country": "US",
    "instructors": "Thomas Morrell,Tommy Keswick,Stephen Davison",
    "venue": "Sherman Fairchild Library",
    "longitude": -118.126089,
    "slug": "2018-08-13-caltech",
    "tag_name": "SWC",
    "helpers": "Donna Wrublewski,Nicholas Cifuentes-Goodbody",
    "host_name": "California Institute of Technology",
    "latitude": 34.136859,
    "start_date": "2018-08-13"
  },
  {
    "end_date": "2018-08-15",
    "url": "https://csucdsi.github.io/2018-08-13-chicostate/",
    "country": "US",
    "instructors": "Robin Donatello,Reid Otsuji",
    "venue": "California State University, Chico",
    "longitude": -121.846237,
    "slug": "2018-08-13-chicostate",
    "tag_name": "SWC",
    "helpers": "Eisley Adoremos,Jerry Tucay,Grant Esparza",
    "host_name": "California State University Chico",
    "latitude": 39.72812,
    "start_date": "2018-08-13"
  },
  {
    "end_date": "2018-08-08",
    "url": "https://orchid00.github.io/2018-08-06-ICTP/",
    "country": "IT",
    "instructors": "Paula Andrea Martinez,Marko Vidak,Hugh Shanahan",
    "venue": "ICTP Adriatico",
    "longitude": 13.714562,
    "slug": "2018-08-06-ICTP",
    "tag_name": "SWC",
    "helpers": "Ola Karrar,Mina Zamani,Jared Canty,Deanna Tipton,Gail Clement",
    "host_name": "International Centre for Theoretical Physics",
    "latitude": 45.707337,
    "start_date": "2018-08-06"
  },
  {
    "end_date": "2018-07-27",
    "url": "https://bham-carpentries.github.io/2018-07-26-python/",
    "country": "GB",
    "instructors": "Matthew Brett,Mark Slater",
    "venue": "University of Birmingham",
    "longitude": -1.936395,
    "slug": "2018-07-26-python",
    "tag_name": "SWC",
    "helpers": "Victor Roth Cardoso,Andris Jankevics,Simon Branford",
    "host_name": "University of Birmingham",
    "latitude": 52.448434,
    "start_date": "2018-07-26"
  },
  {
    "end_date": "2018-07-26",
    "url": "https://emhart.github.io/2018-07-26-lbnl/",
    "country": "US",
    "instructors": "Melissa Fabros,Ted Hart",
    "venue": "LBNL",
    "longitude": -122.2500142,
    "slug": "2018-07-25-LBNL",
    "tag_name": "SWC",
    "helpers": null,
    "host_name": "Lawrence Berkeley National Laboratory",
    "latitude": 37.8759845,
    "start_date": "2018-07-25"
  },
  {
    "end_date": "2018-07-25",
    "url": "https://smcclatchy.github.io/2018-07-24-jacksonLab/",
    "country": "US",
    "instructors": "Sue McClatchy,David McKenzie",
    "venue": "The Jackson Laboratory for Genomic Medicine",
    "longitude": -72.793404,
    "slug": "2018-07-24-jacksonLab",
    "tag_name": "SWC",
    "helpers": "Harshpreet Chandok,Minji Kim,Samirkumar Amin,Seda Arat",
    "host_name": "Jackson Laboratory",
    "latitude": 41.732284,
    "start_date": "2018-07-24"
  },
  {
    "end_date": "2018-07-24",
    "url": "https://nesclic.github.io/2018-07-23-nyu/",
    "country": "US",
    "instructors": "Christian Darabos,Rémi Rampin",
    "venue": "New York University",
    "longitude": -73.996461,
    "slug": "2018-07-23-nyu",
    "tag_name": "SWC",
    "helpers": "Heiko Mueller",
    "host_name": "New York University",
    "latitude": 40.729513,
    "start_date": "2018-07-23"
  },
  {
    "end_date": "2018-07-20",
    "url": "https://pnnl-compbio.github.io/2018-07-19-PNNL-SWC/",
    "country": "US",
    "instructors": "Jeremy Zucker,Carlos Ortiz Marrero,Kyle Monson",
    "venue": "Pacific Northwest National Laboratory",
    "longitude": -119.2783712,
    "slug": "2018-07-19-PNNL-SWC",
    "tag_name": "SWC",
    "helpers": "Kathe Todd-Brown",
    "host_name": "Pacific Northwest National Lab ",
    "latitude": 46.3513347,
    "start_date": "2018-07-19"
  },
  {
    "end_date": "2018-07-17",
    "url": "https://bids.github.io/2018-07-16-bids/",
    "country": "US",
    "instructors": "Nima Hejazi,Kunal Marwaha",
    "venue": "Berkeley Institute for Data Science",
    "longitude": -122.259556,
    "slug": "2018-07-16-bids",
    "tag_name": "SWC",
    "helpers": "Drew Hart,Dana Miller,Rosanna Neuhausler",
    "host_name": "Berkeley Institute for Data Science",
    "latitude": 37.872495,
    "start_date": "2018-07-16"
  },
  {
    "end_date": "2018-07-18",
    "url": "https://curtinic.github.io/2018-07-16-curtin/",
    "country": "AU",
    "instructors": "Rebecca Lange,Tim Young,Lachlan Campbell,Richard Hosking",
    "venue": "Curtin University",
    "longitude": 115.892092,
    "slug": "2018-07-16-curtin",
    "tag_name": "SWC",
    "helpers": null,
    "host_name": "Curtin University",
    "latitude": -32.0069186,
    "start_date": "2018-07-16"
  },
  {
    "end_date": "2018-07-13",
    "url": "https://ncsu-libraries.github.io/2018-07-12-NCSU/",
    "country": "US",
    "instructors": "Shaun Bennett,Jeff Essic,Shreyas Narsipur,Amulya Pervaje,Heidi Tebbe",
    "venue": "North Carolina State University",
    "longitude": -78.676425,
    "slug": "2018-07-12-NCSU",
    "tag_name": "SWC",
    "helpers": "Pranav Hosangadi,Danica Lewis,Todd Stoffer,Markus Wust",
    "host_name": "North Carolina State University",
    "latitude": 35.769275,
    "start_date": "2018-07-12"
  },
  {
    "end_date": "2018-07-13",
    "url": "https://uoa-eresearch.github.io/2018-07-12-UoA-SWC/",
    "country": "NZ",
    "instructors": "Cameron McLean",
    "venue": "University of Auckland",
    "longitude": 174.770931,
    "slug": "2018-07-12-UoA-SWC",
    "tag_name": "SWC",
    "helpers": null,
    "host_name": "University of Auckland",
    "latitude": -36.853303,
    "start_date": "2018-07-12"
  },
  {
    "end_date": "2018-07-04",
    "url": "https://piccolomud.github.io/2018-07-03-ResBazPythonIntro/",
    "country": "AU",
    "instructors": "Madhura Killedar,Tim Keighley,Aidan Wilson,Weisi Chen,Robert Woodward",
    "venue": "ResBaz Sydney (novice Python stream)",
    "longitude": 151.11265,
    "slug": "2018-07-03-ResBazPythonIntro",
    "tag_name": "SWC",
    "helpers": null,
    "host_name": "Macquarie University",
    "latitude": -33.773824,
    "start_date": "2018-07-03"
  },
  {
    "end_date": "2018-07-04",
    "url": "https://uomresearchit.github.io/2018-07-03-manchester/",
    "country": "GB",
    "instructors": "Gerard Capes,David Mawdsley,Nicolas Gruel",
    "venue": "Software Carpentry workshop - University Of Manchester",
    "longitude": -2.233305,
    "slug": "2018-07-03-manchester",
    "tag_name": "SWC",
    "helpers": "Aleksandra Nenadic,Ann Gledson",
    "host_name": "University of Manchester",
    "latitude": 53.466945,
    "start_date": "2018-07-03"
  },
  {
    "end_date": "2018-07-04",
    "url": "https://mq-software-carpentry.github.io/2018-07-03-resbaz-python-advanced/",
    "country": "AU",
    "instructors": "Xavier Ho,Anastasios Papaioannou,James Tocknell",
    "venue": "ResBaz Sydney (advanced Python stream)",
    "longitude": 151.114699,
    "slug": "2018-07-03-resbaz-python-advanced",
    "tag_name": "SWC",
    "helpers": null,
    "host_name": "Macquarie University",
    "latitude": -33.775119,
    "start_date": "2018-07-03"
  },
  {
    "end_date": "2018-07-04",
    "url": "https://humburg.github.io/2018-07-03-resbaz-sydneyAdvR/",
    "country": "AU",
    "instructors": "Peter Humburg,Adela Sobotkova,James Lawson",
    "venue": "ResBaz Sydney (advanced R stream)",
    "longitude": 151.114946,
    "slug": "2018-07-03-resbaz-sydneyAdvR",
    "tag_name": "SWC",
    "helpers": null,
    "host_name": "Macquarie University",
    "latitude": -33.773949,
    "start_date": "2018-07-03"
  },
  {
    "end_date": "2018-07-04",
    "url": "https://denubis.github.io/2018-07-03-resbaz2018sql/",
    "country": "AU",
    "instructors": "Brian Ballsun-Stanton,Richard Berry,Ghulam Murtaza",
    "venue": "Resbaz Sydney (SQL stream)",
    "longitude": 151.1143426,
    "slug": "2018-07-03-resbaz2018sql",
    "tag_name": "SWC",
    "helpers": null,
    "host_name": "Macquarie University",
    "latitude": -33.7755405,
    "start_date": "2018-07-03"
  },
  {
    "end_date": "2018-07-03",
    "url": "https://cengel.github.io/2018-07-02-stanford/",
    "country": "US",
    "instructors": "Claudia Engel,Zac Painter,Mary-Ellen Petrich,Ana Rivera",
    "venue": "Stanford University",
    "longitude": -122.175758,
    "slug": "2018-07-02-stanford",
    "tag_name": "SWC",
    "helpers": "Zhiyong Zhang",
    "host_name": "Stanford University",
    "latitude": 37.43181,
    "start_date": "2018-07-02"
  },
  {
    "end_date": "2018-06-29",
    "url": "https://dib-lab.github.io/2018-06-27-DIBSI-SWC/",
    "country": "US",
    "instructors": "Andrew Latimer,Alessandra Vigilante,Phillip Brooks",
    "venue": "UC Davis - DIBSI Unix/Git/R in English",
    "longitude": -121.7658964,
    "slug": "2018-06-27-DIBSI-SWC",
    "tag_name": "SWC",
    "helpers": "Holly Bik,Daniel Sperka",
    "host_name": "University of California Davis",
    "latitude": 38.5328167,
    "start_date": "2018-06-28"
  },
  {
    "end_date": "2018-06-29",
    "url": "https://nesclic.github.io/2018-06-28-Dartmouth/",
    "country": "US",
    "instructors": "James Adams,Lora Leligdon,Christian Darabos",
    "venue": "Dartmouth College",
    "longitude": -72.284951,
    "slug": "2018-06-28-dartmouth",
    "tag_name": "SWC",
    "helpers": "David Chen,Stephen Gaughan,Pamela Bagley,Mark Boetcher,Charles Chen,Bill Hamblen,George Morris",
    "host_name": "Dartmouth College",
    "latitude": 43.709062,
    "start_date": "2018-06-28"
  },
  {
    "end_date": "2018-06-29",
    "url": "https://bio-swc-bne.github.io/2018-06-28-uqws/",
    "country": "AU",
    "instructors": "Belinda Weaver,Ido Bar,Thom Cuddihy,David Green",
    "venue": "UQ Winter School Software Carpentry R Workshop",
    "longitude": 153.0127279,
    "slug": "2018-06-28-uqws",
    "tag_name": "SWC",
    "helpers": null,
    "host_name": "University of Queensland",
    "latitude": -27.5014792,
    "start_date": "2018-06-28"
  },
  {
    "end_date": "2018-06-28",
    "url": "https://dib-lab.github.io/2018-06-27-DIBSI-SocialSci/",
    "country": "US",
    "instructors": "Aleksandra Taranov,Erin Becker,Daniel Hicks",
    "venue": "UC Davis - DIBSI Social Sciences Workshop",
    "longitude": -121.7658964,
    "slug": "2018-06-27-DIBSI-SocialSci",
    "tag_name": "SWC",
    "helpers": "Kat Fowler,Jane Park,Seth Frey,Seth Frey",
    "host_name": "University of California Davis",
    "latitude": 38.5328167,
    "start_date": "2018-06-27"
  },
  {
    "end_date": "2018-06-28",
    "url": "https://emilydolson.github.io/2018-06-27-lbnl/",
    "country": "US",
    "instructors": "Emily Dolson,Becca Love",
    "venue": "Lawrence Berkeley National Lab",
    "longitude": -122.250591,
    "slug": "2018-06-27-LBNL",
    "tag_name": "SWC",
    "helpers": null,
    "host_name": "Lawrence Berkeley National Laboratory",
    "latitude": 37.875602,
    "start_date": "2018-06-27"
  },
  {
    "end_date": "2018-06-28",
    "url": "https://proteinmechanic.github.io/2018-06-27-Lahore/",
    "country": "PK",
    "instructors": "Ashar Malik",
    "venue": "University of the Punjab, Lahore.",
    "longitude": 74.3072758,
    "slug": "2018-06-27-Lahore",
    "tag_name": "SWC",
    "helpers": "Abu Bakar,Aneeza Iftikhar,Bushra Munir,Saad Tariq,Shanian Mehar",
    "host_name": "University of Punjab, Lahore",
    "latitude": 31.5002836,
    "start_date": "2018-06-27"
  },
  {
    "end_date": "2018-06-29",
    "url": "http://iamc.eu/2018-06-27-cfmehu/",
    "country": "ES",
    "instructors": "Inigo Aldazabal Mensa,Andrés Díaz-Gil,David De Sancho,Anita Schürch",
    "venue": "Materials Physics Center - University of the Basque Country",
    "longitude": -2.009393,
    "slug": "2018-06-27-cfmehu",
    "tag_name": "SWC",
    "helpers": "Diego Lasa,Daniel Arismendi,Xiang Xu",
    "host_name": "University of the Basque Country",
    "latitude": 43.313143,
    "start_date": "2018-06-27"
  },
  {
    "end_date": "2018-06-27",
    "url": "https://jlant.github.io/2018-06-26-NASA/",
    "country": "US",
    "instructors": "Chris Friedline,Jeremiah Lant",
    "venue": "NASA Goddard Space Flight Center",
    "longitude": -76.835762,
    "slug": "2018-06-26-NASA",
    "tag_name": "SWC",
    "helpers": "Brad Cenko",
    "host_name": "NASA (National Aeronautics and Space Administration)",
    "latitude": 38.996052,
    "start_date": "2018-06-26"
  },
  {
    "end_date": "2018-06-27",
    "url": "http://rits.github-pages.ucl.ac.uk/2018-06-26-UCL_software_carpentry/",
    "country": "GB",
    "instructors": "Thomas Dowrick,Anastasis Georgoulas,Roland Guichard,Mital Kinderkedia",
    "venue": "University College London",
    "longitude": -0.133414,
    "slug": "2018-06-26-UCL_software_carpentry",
    "tag_name": "SWC",
    "helpers": "Stuart Grieve,Vilma Agalioti Sgompou",
    "host_name": "University College London",
    "latitude": 51.525652,
    "start_date": "2018-06-26"
  },
  {
    "end_date": "2018-06-27",
    "url": "https://swcarpentry-wuerzburg.github.io/2018-06-26-wuerzburg/",
    "country": "DE",
    "instructors": "Markus Ankenbrand,Florian Goth,Sonja Hohlfeld,Torsten Paul",
    "venue": "University of Würzburg",
    "longitude": 9.970747,
    "slug": "2018-06-26-wuerzburg",
    "tag_name": "SWC",
    "helpers": "Daniel Vedder,Nico Braun,Franziska Saul,Anand Gavai,Joep Tummers",
    "host_name": "University of Wuerzburg",
    "latitude": 49.785411,
    "start_date": "2018-06-26"
  },
  {
    "end_date": "2018-06-17",
    "url": "http://www.caseyyoungflesh.com/2018-06-16-davos/",
    "country": "CH",
    "instructors": "Casey Youngflesh,Jane Wyngaard,Shantenu Jha,Virginia Trueheart,Catherine Foley",
    "venue": "Software Carpentry and Intro to HPC for Polar Science - POLAR 2018",
    "longitude": 9.831758,
    "slug": "2018-06-16-davos",
    "tag_name": "SWC",
    "helpers": "Heather Lynch,Allen Pope,Bento Goncalves,Christian Che-Castaldo,Mary Jo Brodzik",
    "host_name": "Davos Congress Centre",
    "latitude": 46.800413,
    "start_date": "2018-06-16"
  },
  {
    "end_date": "2018-06-15",
    "url": "https://primerano.github.io/2018-06-14-FRB/",
    "country": "US",
    "instructors": "Thomas Allard,Tony Primerano,Brian Seok,Damian Thomas",
    "venue": "Federal Reserve Board",
    "longitude": -77.040454,
    "slug": "2018-06-14-FRB",
    "tag_name": "SWC",
    "helpers": null,
    "host_name": "Federal Reserve Board",
    "latitude": 38.896676,
    "start_date": "2018-06-14"
  },
  {
    "end_date": "2018-06-15",
    "url": "https://kdottiemo.github.io/2018-06-14-NASA-LRC/",
    "country": "US",
    "instructors": "Arthur Endsley,Katie Moore",
    "venue": "Science Systems and Applications, Inc.",
    "longitude": -76.404445,
    "slug": "2018-06-14-NASA-LRC",
    "tag_name": "SWC",
    "helpers": "Kent Ross",
    "host_name": "NASA (National Aeronautics and Space Administration)",
    "latitude": 37.05765,
    "start_date": "2018-06-14"
  },
  {
    "end_date": "2018-06-15",
    "url": "https://umswc.github.io/2018-06-14-umich/",
    "country": "US",
    "instructors": "William Close,Lisa Abernathy-Close,Nick Lesniak",
    "venue": "University of Michigan",
    "longitude": -83.733888,
    "slug": "2018-06-14-umich",
    "tag_name": "SWC",
    "helpers": "Kayla Peck,Andrew Winters,Jonathan Greenberg",
    "host_name": "University of Michigan",
    "latitude": 42.283415,
    "start_date": "2018-06-14"
  },
  {
    "end_date": "2018-06-15",
    "url": "https://steve855.github.io/2018-06-13-LANL/",
    "country": "US",
    "instructors": "Andy Fraser,Stephen Andrews,Tyler Reddy,Chris Malone",
    "venue": "Los Alamos National Laboratory",
    "longitude": -106.319616,
    "slug": "2018-06-13-LANL",
    "tag_name": "SWC",
    "helpers": "Christoph Junghans,Austin McCartney,Jonathan Maccarthy",
    "host_name": "Los Alamos National Laboratory",
    "latitude": 35.88612,
    "start_date": "2018-06-13"
  },
  {
    "end_date": "2018-06-14",
    "url": "https://weaverbel.github.io/2018-06-12-wrds/",
    "country": "AU",
    "instructors": "Belinda Weaver,Sandra Brosda,Stéphane Guillou,Leah Roberts",
    "venue": "UQ",
    "longitude": 152.9668827,
    "slug": "2018-06-12-wrds",
    "tag_name": "SWC",
    "helpers": null,
    "host_name": "University of Queensland",
    "latitude": -27.5153012,
    "start_date": "2018-06-12"
  },
  {
    "end_date": "2018-06-12",
    "url": "https://bids.github.io/2018-06-11-bids/",
    "country": "US",
    "instructors": "Diya Das,Rebecca Barter,Richard Barnes",
    "venue": "Berkeley Institute for Data Science",
    "longitude": -122.259556,
    "slug": "2018-06-11-BIDS",
    "tag_name": "SWC",
    "helpers": "Jenna Baughman,Caroline Cypranowska",
    "host_name": "Berkeley Institute for Data Science",
    "latitude": 37.872495,
    "start_date": "2018-06-11"
  },
  {
    "end_date": "2018-06-12",
    "url": "https://fthoele.github.io/2018-06-11-Gothenburg/",
    "country": "SE",
    "instructors": "Florian Thöle,Hadrien Gourlé",
    "venue": "University of Gothenburg",
    "longitude": 11.9586838,
    "slug": "2018-06-11-Gothenburg",
    "tag_name": "SWC",
    "helpers": "Mats Töpel,Alexander Eiler",
    "host_name": "Software Carpentry",
    "latitude": 57.686131,
    "start_date": "2018-06-11"
  },
  {
    "end_date": "2018-06-19",
    "url": "https://ocefpaf.github.io/SWC-Floripa/",
    "country": "BR",
    "instructors": "Filipe Fernandes",
    "venue": "UFSC",
    "longitude": -48.5203502,
    "slug": "2018-06-11-UFSC",
    "tag_name": "SWC",
    "helpers": "Vini Salazar,Juliana Leonel",
    "host_name": "Universidade Federal de Santa Catarina",
    "latitude": -27.5982559,
    "start_date": "2018-06-11"
  },
  {
    "end_date": "2018-06-08",
    "url": "https://uio-carpentry.github.io/2018-06-07-Oslo/",
    "country": "NO",
    "instructors": "Arvind Sundaram,Ana Costa Conrado,Gladys Nalvarte,Hugues Fontenelle",
    "venue": "University of Oslo",
    "longitude": null,
    "slug": "2018-06-07-Oslo",
    "tag_name": "SWC",
    "helpers": null,
    "host_name": "University of Oslo",
    "latitude": null,
    "start_date": "2018-06-07"
  },
  {
    "end_date": "2018-06-08",
    "url": "https://jcszamosi.github.io/2018-06-07-McMaster/",
    "country": "CA",
    "instructors": "Jake Szamosi,Shahrokh Shekarriz,Laura Rossi",
    "venue": "McMaster University",
    "longitude": -79.919225,
    "slug": "2018-06-07-mcmaster",
    "tag_name": "SWC",
    "helpers": null,
    "host_name": "McMaster University",
    "latitude": 43.260879,
    "start_date": "2018-06-07"
  },
  {
    "end_date": "2018-06-08",
    "url": "https://swc-uiuc.github.io/2018-06-07-researchpark/",
    "country": "US",
    "instructors": "Halle Burns,Neal Davis,Samniqueka Halsey,Tatum Hawkins",
    "venue": "Software Carpentry Workshop at UIUC Research Park",
    "longitude": -88.2423438,
    "slug": "2018-06-07-researchpark",
    "tag_name": "SWC",
    "helpers": null,
    "host_name": "University of Illinois at Urbana-Champaign",
    "latitude": 40.0911053,
    "start_date": "2018-06-07"
  },
  {
    "end_date": "2018-06-08",
    "url": "https://bio-swc-bne.github.io/2018-06-06-ResbazBris-Python/",
    "country": "AU",
    "instructors": "Liz Cooper-Williams,Letitia Sabburg,Thom Cuddihy,Edward Barry",
    "venue": "ResBaz Brisbane (Python)",
    "longitude": 153.024804,
    "slug": "2018-06-06-ResbazBris-Python",
    "tag_name": "SWC",
    "helpers": null,
    "host_name": "Griffith University",
    "latitude": -27.482034,
    "start_date": "2018-06-06"
  },
  {
    "end_date": "2018-06-08",
    "url": "https://bio-swc-bne.github.io/2018-06-06-ResbazBris-R/",
    "country": "AU",
    "instructors": "Ido Bar,Marieke Frassl,Elizabeth McCarthy,Liz Cooper-Williams",
    "venue": "ResBaz Brisbane (R)",
    "longitude": 153.024804,
    "slug": "2018-06-06-ResbazBris-R",
    "tag_name": "SWC",
    "helpers": null,
    "host_name": "Griffith University",
    "latitude": -27.482034,
    "start_date": "2018-06-06"
  },
  {
    "end_date": "2018-06-07",
    "url": "https://uw-madison-aci.github.io/2018-06-06-uwmadison-swc/",
    "country": "US",
    "instructors": "Kalin Kiesling,Matthew Garcia,Taylor Scott,Patrick Shriwise",
    "venue": "Software Carpentry @ UW-Madison",
    "longitude": -89.405801,
    "slug": "2018-06-06-uwmadison-swc",
    "tag_name": "SWC",
    "helpers": "Stephen Meyer,Dorothea Salo,Christina Koch,Lauren Michael,Brian Cornille",
    "host_name": "University of Wisconsin - Madison",
    "latitude": 43.074437,
    "start_date": "2018-06-06"
  },
  {
    "end_date": "2018-06-06",
    "url": "https://unt-carpentries.github.io/2018-06-05-unt-swc/",
    "country": "US",
    "instructors": "Kristy Phillips,Jason Ellis,Manuel (Gio) Gottardi,Lauren Ko",
    "venue": "University of North Texas",
    "longitude": -97.148954,
    "slug": "2018-06-05-unt-swc",
    "tag_name": "SWC",
    "helpers": "Tom Miles,William (Bill) Moen",
    "host_name": "University of North Texas",
    "latitude": 33.210068,
    "start_date": "2018-06-05"
  },
  {
    "end_date": "2018-06-01",
    "url": "https://grenoble-alpes-data-institute.github.io/2018-05-31-grenoble-software-carpentry/",
    "country": "FR",
    "instructors": "Loïc Estève,Carlos Gomez Gonzalez,Florian Privé,Guillaume Becq,Raphaël Bacher,Michael Blum,Pierre Maho",
    "venue": "Grenoble Alpes Data Institute",
    "longitude": 5.76728,
    "slug": "2018-05-31-grenoble",
    "tag_name": "SWC",
    "helpers": "Magali Richard,Clementine Decamps",
    "host_name": "Université Grenoble Alpes, Grenoble Alpes Data Institute",
    "latitude": 45.19056,
    "start_date": "2018-05-31"
  },
  {
    "end_date": "2018-05-30",
    "url": "https://yeemey.github.io/2018-05-29-kingcounty/",
    "country": "US",
    "instructors": "Yee Mey Seah,Carolina Johnson",
    "venue": "King County",
    "longitude": -122.331212,
    "slug": "2018-05-29-kingcounty",
    "tag_name": "SWC",
    "helpers": null,
    "host_name": "King County Department of Community and Human Services",
    "latitude": 47.600513,
    "start_date": "2018-05-29"
  },
  {
    "end_date": "2018-05-29",
    "url": "https://computecanada.github.io/2018-05-28-ualberta-hpc/",
    "country": "CA",
    "instructors": "Alex Razoumov,Kamil Marcinkowski",
    "venue": "HPC Carpentry, University of Alberta",
    "longitude": -113.526347,
    "slug": "2018-05-28-ualberta-hpc",
    "tag_name": "SWC",
    "helpers": null,
    "host_name": "University of Alberta",
    "latitude": 53.521575,
    "start_date": "2018-05-28"
  },
  {
    "end_date": "2018-05-27",
    "url": "https://ppomorsk.github.io/2018-05-26-conestoga/",
    "country": "CA",
    "instructors": "Pawel Pomorski,Tyson Whitehead,Isaac Ye",
    "venue": "HPC Carpentry - Conestoga College",
    "longitude": -80.404178,
    "slug": "2018-05-26-conestoga",
    "tag_name": "SWC",
    "helpers": null,
    "host_name": "Conestoga College",
    "latitude": 43.389485,
    "start_date": "2018-05-26"
  },
  {
    "end_date": "2018-05-25",
    "url": "https://bsmith89.github.io/2018-05-24-LBNL/",
    "country": "US",
    "instructors": "Jacob Koehler,Byron Smith",
    "venue": "Lawrence Berkeley National Laboratory",
    "longitude": -122.250644,
    "slug": "2018-05-24-LBNL",
    "tag_name": "SWC",
    "helpers": "Kunal Marwaha",
    "host_name": "Lawrence Berkeley National Laboratory",
    "latitude": 37.876055,
    "start_date": "2018-05-24"
  },
  {
    "end_date": "2018-05-25",
    "url": "https://swc-uiuc.github.io/2018-05-24-inclusion/",
    "country": "US",
    "instructors": "Elizabeth Wickes,Maxim Belkin,Samniqueka Halsey,Kathryn Huff",
    "venue": "University of Illinois",
    "longitude": -88.224765,
    "slug": "2018-05-24-inclusion",
    "tag_name": "SWC",
    "helpers": "Dena Strong,Halie Rando",
    "host_name": "University of Illinois at Urbana-Champaign",
    "latitude": 40.114921,
    "start_date": "2018-05-24"
  },
  {
    "end_date": "2018-05-22",
    "url": "https://kevin-vilbig.github.io/2018-05-21-JLAB/",
    "country": "FI",
    "instructors": "Srihari Sundar,Kevin Vilbig",
    "venue": "Jefferson Labs",
    "longitude": null,
    "slug": "2018-05-21-JLAB",
    "tag_name": "SWC",
    "helpers": "Tyler Kutz,Evan McClellan",
    "host_name": "Jefferson Lab",
    "latitude": null,
    "start_date": "2018-05-21"
  },
  {
    "end_date": "2018-05-17",
    "url": "https://minescarpentries.github.io/2018-05-16-coloradomines/",
    "country": "US",
    "instructors": "Blake Stamps,Ye Li",
    "venue": "Colorado School of Mines - Software Carpentry Workshop",
    "longitude": -105.223285,
    "slug": "2018-05-16-coloradomines",
    "tag_name": "SWC",
    "helpers": "Andrea Golden-Lasher,Malcolm Davidson,Alex Honeyman",
    "host_name": "Colorado School of MInes",
    "latitude": 39.751463,
    "start_date": "2018-05-16"
  },
  {
    "end_date": "2018-05-16",
    "url": "https://anenadic.github.io/2018-05-15-swc-manchester/",
    "country": "GB",
    "instructors": "Raniere Silva,Nicolas Gruel",
    "venue": "University of Manchester",
    "longitude": -2.234033,
    "slug": "2018-05-15-swc-manchester",
    "tag_name": "SWC",
    "helpers": "Aleksandra Nenadic,Ann Gledson,Ella Guest,David Mawdsley",
    "host_name": "University of Manchester",
    "latitude": 53.467376,
    "start_date": "2018-05-15"
  },
  {
    "end_date": "2018-05-15",
    "url": "https://computecanada.github.io/2018-05-14-ualberta-sc/",
    "country": "CA",
    "instructors": "John Simpson,Wendy Lam,Denny Yang",
    "venue": "University of Alberta",
    "longitude": -113.526347,
    "slug": "2018-05-14-ualberta-sc",
    "tag_name": "SWC",
    "helpers": "Kamil Marcinkowski,Mariana Olea",
    "host_name": "University of Alberta",
    "latitude": 53.521575,
    "start_date": "2018-05-14"
  },
  {
    "end_date": "2018-05-11",
    "url": "https://mq-software-carpentry.github.io/2018-05-10-macquarie-university/",
    "country": "AU",
    "instructors": "James Tocknell,Richard Miller",
    "venue": "Macquare University",
    "longitude": 151.113321,
    "slug": "2018-05-10-macquarie-university",
    "tag_name": "SWC",
    "helpers": null,
    "host_name": "Macquarie University",
    "latitude": -33.774715,
    "start_date": "2018-05-10"
  },
  {
    "end_date": "2018-05-11",
    "url": "https://tem11010.github.io/2018-05-10-UConn/",
    "country": "US",
    "instructors": "Timothy Moore,Pariksheet Nanda,James Mickley",
    "venue": "University of Connecticut",
    "longitude": -72.253772,
    "slug": "2018-05-10-uconn",
    "tag_name": "SWC",
    "helpers": "Henry Frye,Charlie Brown,Austin Spence,Kendra Maas,Hannah Kyer",
    "host_name": "University of Connecticut",
    "latitude": 41.805992,
    "start_date": "2018-05-10"
  },
  {
    "end_date": "2018-05-10",
    "url": "https://arthur-e.github.io/2018-05-09-WHOI/",
    "country": "US",
    "instructors": "Arthur Endsley,Katie Moore",
    "venue": "Woods Hole Oceanographic Institute",
    "longitude": -70.647926,
    "slug": "2018-05-09-WHOI",
    "tag_name": "SWC",
    "helpers": "Stace Beaulieu,Joe Futrelle,Hannah Mark",
    "host_name": "Woods Hole Oceanographic Institute",
    "latitude": 41.534597,
    "start_date": "2018-05-09"
  },
  {
    "end_date": "2018-05-15",
    "url": "https://scw-aberystwyth.github.io/2018-05-08-Aberystwyth_python/",
    "country": "GB",
    "instructors": "Colin Sauze",
    "venue": "Plotting and Programming in Python - Aberystwyth University",
    "longitude": -4.0659,
    "slug": "2018-05-08-Aberystwyth_python",
    "tag_name": "SWC",
    "helpers": "Alex Pitchford,Katie Awty-Carroll,Deepthi Sareddy,Nicholas Dimonaco,Amanda Clare,Vladimir Khodygo",
    "host_name": "University of Aberystwyth",
    "latitude": 52.4159,
    "start_date": "2018-05-08"
  },
  {
    "end_date": "2018-05-06",
    "url": "https://dddragons.github.io/2018-05-05-drexel/",
    "country": "US",
    "instructors": "Yuan An",
    "venue": "Drexel University",
    "longitude": -75.186861,
    "slug": "2018-05-05-drexel",
    "tag_name": "SWC",
    "helpers": "Samantha Serrao",
    "host_name": "Drexel University",
    "latitude": 39.954093,
    "start_date": "2018-05-05"
  },
  {
    "end_date": "2018-05-04",
    "url": "https://cac-staff.github.io/2018-05-03-queensu/",
    "country": "CA",
    "instructors": "Jeff Stafford",
    "venue": "HPC Carpentry - Queen's University",
    "longitude": -76.4972414,
    "slug": "2018-05-03-queensu",
    "tag_name": "SWC",
    "helpers": "Charlie Hindmarch,Mark Mathiew",
    "host_name": "Queen's University",
    "latitude": 44.2275652,
    "start_date": "2018-05-03"
  },
  {
    "end_date": "2018-05-04",
    "url": "https://bpteague.github.io/2018-05-03-scsu/",
    "country": "US",
    "instructors": "Brian Teague,Aniello Infante",
    "venue": "Southern Connecticut State University",
    "longitude": -72.926454,
    "slug": "2018-05-03-scsu",
    "tag_name": "SWC",
    "helpers": null,
    "host_name": "Southern Connecticut State Universtiy",
    "latitude": 41.306627,
    "start_date": "2018-05-03"
  },
  {
    "end_date": "2018-05-01",
    "url": "https://computecanada.github.io/2018-04-30-sfu",
    "country": "CA",
    "instructors": "Alex Razoumov,Mostafa Ebrahimi,Marie-Helene Burle",
    "venue": "Software Carpentry at Simon Fraser University",
    "longitude": -122.914015,
    "slug": "2018-04-30-sfu",
    "tag_name": "SWC",
    "helpers": null,
    "host_name": "Simon Fraser University",
    "latitude": 49.277537,
    "start_date": "2018-04-30"
  },
  {
    "end_date": "2018-05-03",
    "url": "https://combine-australia.github.io/2018-4-26-SWC-Melbourne/",
    "country": "AU",
    "instructors": "Luke Zappia,Andrew Lonsdale,Harriet Dashnow",
    "venue": "Walter and Eliza Hall Institute",
    "longitude": 144.957442,
    "slug": "2018-04-26-WEHI",
    "tag_name": "SWC",
    "helpers": null,
    "host_name": "COMBINE",
    "latitude": -37.796897,
    "start_date": "2018-04-26"
  },
  {
    "end_date": "2018-04-26",
    "url": "https://markcmiller86.github.io/2018-04-25-lbnl/",
    "country": "US",
    "instructors": "Mark Miller,Kim Durante",
    "venue": "LBNL",
    "longitude": -122.250027,
    "slug": "2018-04-25-LBNL",
    "tag_name": "SWC",
    "helpers": null,
    "host_name": "Lawrence Berkeley National Laboratory",
    "latitude": 37.875928,
    "start_date": "2018-04-25"
  },
  {
    "end_date": "2018-04-26",
    "url": "https://swc-bb.github.io/2018-04-25-Potsdam-Berlin/",
    "country": "DE",
    "instructors": "Martin Hammitzsch,Stefan Lüdtke,Marvin Reich,Till Francke,Berry Boessenkool,Peter Evans,Robert Gieseke,Daniel Beiter",
    "venue": "Albert Einstein Science Park, Potsdam, Germany",
    "longitude": 13.0623,
    "slug": "2018-04-25-Potsdam-Berlin",
    "tag_name": "SWC",
    "helpers": "Knut Günther,Joachim Krois,Michael Dietze,Steffen Kriewald",
    "host_name": "GFZ Potsdam",
    "latitude": 52.3796,
    "start_date": "2018-04-25"
  },
  {
    "end_date": "2018-04-26",
    "url": "http://rits.github-pages.ucl.ac.uk/2018-04-25-UCL_software_carpentry/",
    "country": "GB",
    "instructors": "Martha Robinson,Roland Guichard,Stuart Grieve,Vilma Agalioti Sgompou",
    "venue": "UCL",
    "longitude": -0.135084,
    "slug": "2018-04-25-UCL_software_carpentry",
    "tag_name": "SWC",
    "helpers": "Anastasis Georgoulas,David Wright,Jonathan Cooper,Sanaz Jabbari,Stef Piatek",
    "host_name": "University College London",
    "latitude": 51.524253,
    "start_date": "2018-04-25"
  },
  {
    "end_date": "2018-05-01",
    "url": "https://scw-aberystwyth.github.io/2018-04-24-Aberystwyth_git/",
    "country": "GB",
    "instructors": "Colin Sauze",
    "venue": "Version Control with Git - Aberystwyth University",
    "longitude": -4.0659,
    "slug": "2018-04-24-Aberystwyth_git",
    "tag_name": "SWC",
    "helpers": "Alex Pitchford,Deepthi Sareddy,Nicholas Dimonaco,Amanda Clare,Vladimir Khodygo",
    "host_name": "University of Aberystwyth",
    "latitude": 52.4159,
    "start_date": "2018-04-24"
  },
  {
    "end_date": "2018-04-24",
    "url": "https://curtinic.github.io/2018-04-23-curtin/",
    "country": "AU",
    "instructors": "Rebecca Lange,Tim Young",
    "venue": "Curtin University",
    "longitude": 115.894418,
    "slug": "2018-04-23-curtin",
    "tag_name": "SWC",
    "helpers": "Dan Marrable,Kasia Koziara",
    "host_name": "Curtin University",
    "latitude": -32.006195,
    "start_date": "2018-04-23"
  },
  {
    "end_date": "2018-04-24",
    "url": "https://umswc.github.io/2018-04-23-umich/",
    "country": "US",
    "instructors": "Dave Bridges,Zena Lapp,Marc Sze",
    "venue": "University of Michigan",
    "longitude": -83.737161,
    "slug": "2018-04-23-umich",
    "tag_name": "SWC",
    "helpers": "Scott Martin",
    "host_name": "University of Michigan",
    "latitude": 42.275472,
    "start_date": "2018-04-23"
  },